[
    {
      "province": "安徽",
      "city": "蚌埠",
      "name": "蚌埠慈铭体检中心",
      "state": "开放",
      "support": "不支持",
      "standard": "无",
      "printing": 10,
      "courier": "到付",
      "breakfast-b": 100,
      "breakfast-f": "101元以上免费",
      "x-print": 10,
      "x-disc": "无",
      "address": "蚌埠市龙之湖区广场西路19号5层（安德数码广场1号门旁）",
      "phone": "0552-7288806",
      "hours": "周二到周末（7:00-11:30  14:00-17:30）",
      "desk-phone": "0552-7286888",
      "time": "周二到周末（7:00-11:30）",
      "bus-line": "乘车路线：103、109、128、107、115、207、104、110、112、102、101 到火车站下车即可。"
    },
    {
      "province": "广西",
      "city": "北海",
      "name": "北海美年大健康体检中心",
      "state": "开放",
      "support": "不支持",
      "standard": "无",
      "printing": 20,
      "courier": "到付",
      "breakfast-b": 100,
      "breakfast-f": "免费",
      "x-print": 25,
      "x-disc": "不支持",
      "address": "北海市海城区茶亭路49号北部湾一号雅苑商业区",
      "phone": "0779-6663650",
      "hours": "周一至周五7:30-12：00 14:30-17：00 周六7:30-12:00",
      "desk-phone": "0779-6663650",
      "time": "周一至周五7:30-12：00 14:30-17：00 周六、周日7:30-12:00",
      "bus-line": "公交106路、9路"
    },
    {
      "province": "北京",
      "city": "北京",
      "name": "大望路",
      "state": "对异地开放",
      "support": "不支持",
      "standard": "",
      "printing": 10,
      "courier": 10,
      "breakfast-b": 120,
      "breakfast-f": 6,
      "x-print": 70,
      "x-disc": "",
      "address": "北京市朝阳区西大望路15号外企大厦B座5层",
      "phone": "400-617-7999",
      "hours": "周一到周日  7:00-21:00",
      "desk-phone": 67772866,
      "time": "7:30--10:30    值班到16:00 无休   ",
      "bus-line": "地铁1号线（大望路站）、10号线（双井站），换乘公交车715、35、348到珠江帝景站下车，十字路口西北角"
    },
    {
      "province": "北京",
      "city": "北京",
      "name": "东四",
      "state": "对异地开放",
      "support": "不支持",
      "standard": "",
      "printing": 10,
      "courier": 10,
      "breakfast-b": 120,
      "breakfast-f": 6,
      "x-print": 70,
      "x-disc": "",
      "address": " 北京市东城区朝内大街296号瀚海科技大厦B座",
      "phone": "400-617-7999",
      "hours": "周一到周日  7:00-21:00",
      "desk-phone": 52190566,
      "time": "7:30--10:30    值班到16:00 无休   ",
      "bus-line": "地铁5号线东四站C出口，向东200米路南。公交106.116.109东四路口"
    },
    {
      "province": "北京",
      "city": "北京",
      "name": "佳境",
      "state": "对异地开放",
      "support": "不支持",
      "standard": "",
      "printing": 10,
      "courier": 10,
      "breakfast-b": 120,
      "breakfast-f": 6,
      "x-print": 70,
      "x-disc": "",
      "address": "北京市朝阳区酒仙桥路12号电子科技大厦八层",
      "phone": "400-617-7999",
      "hours": "周一到周日  7:00-21:00",
      "desk-phone": 64378890,
      "time": "7:30--10:30    值班到16:00    ",
      "bus-line": "公交401、402、418、445、621、656、688、847、909、946、955、967、973、976、988、991到陈各庄站下车，路东即达"
    },
    {
      "province": "北京",
      "city": "北京",
      "name": "金融街分院",
      "state": "对异地开放",
      "support": "不支持",
      "standard": "",
      "printing": 10,
      "courier": 10,
      "breakfast-b": 120,
      "breakfast-f": 6,
      "x-print": 70,
      "x-disc": "",
      "address": "北京市西城区太平桥大街111号湘西大厦6层（旁边是加油站）。",
      "phone": "400-617-7999",
      "hours": "周一休息",
      "desk-phone": "",
      "time": "7:30--10:30    值班到16:00    ",
      "bus-line": "乘车线路：地铁4号线灵柩胡同向西第二个红绿灯左转，1号线或者2号线复兴门站A口出来右转，公交：68、352灵柩胡同下车，公交38和47路辟才胡同站下车。"
    },
    {
      "province": "北京",
      "city": "北京",
      "name": "太阳宫",
      "state": "对异地开放",
      "support": "不支持",
      "standard": "",
      "printing": 10,
      "courier": 10,
      "breakfast-b": 120,
      "breakfast-f": 6,
      "x-print": 70,
      "x-disc": "",
      "address": "北京市朝阳区太阳宫半岛国际公寓12号楼底商",
      "phone": "400-617-7999",
      "hours": "周一到周日  7:00-21:00",
      "desk-phone": "84411975-603",
      "time": "7:30--10:30    值班到16:00    ",
      "bus-line": "地铁10号线太阳宫站下车B（东北）东行400米公交：467、966、590、567、130、132夏家园。"
    },
    {
      "province": "北京",
      "city": "北京",
      "name": "西直门",
      "state": "对异地开放",
      "support": "不支持",
      "standard": "",
      "printing": 10,
      "courier": 10,
      "breakfast-b": 120,
      "breakfast-f": 6,
      "x-print": 70,
      "x-disc": "",
      "address": "北京市海淀区西直门北大街45-6",
      "phone": "400-617-7999",
      "hours": "周一到周日  7:00-21:00",
      "desk-phone": 62220203,
      "time": "7:30--10:30    值班到16:00    ",
      "bus-line": "地铁2号线到西直门下车西北出口向北走约500米路西"
    },
    {
      "province": "北京",
      "city": "北京",
      "name": "宣武",
      "state": "对异地开放",
      "support": "不支持",
      "standard": "",
      "printing": 10,
      "courier": 10,
      "breakfast-b": 120,
      "breakfast-f": 6,
      "x-print": 70,
      "x-disc": "",
      "address": "北京市西城区宣武门外大街20号海格国际酒店3层301-302",
      "phone": "400-617-7999",
      "hours": "周一到周日  7:00-21:00",
      "desk-phone": 63189711,
      "time": "7:30--10:30    值班到16:00    ",
      "bus-line": "地铁2号线（宣武门站）、公交车50、70、102、105、109、603、604到宣武门外站下车，向南到前青厂胡同向东路南"
    },
    {
      "province": "北京",
      "city": "北京",
      "name": "魏公村",
      "state": "对异地开放",
      "support": "不支持",
      "standard": "",
      "printing": 10,
      "courier": 10,
      "breakfast-b": 120,
      "breakfast-f": 6,
      "x-print": 70,
      "x-disc": "",
      "address": "海淀区中关村南大街甲12号 寰太大厦4层",
      "phone": "400-617-7999",
      "hours": "周一到周日  7:00-21:00",
      "desk-phone": "",
      "time": "7:30--10:30    值班到16:00    ",
      "bus-line": "路线: 地铁4号线魏公村B口出即到"
    },
    {
      "province": "北京",
      "city": "北京",
      "name": "牡丹园",
      "state": "有",
      "support": "不支持",
      "standard": "",
      "printing": 10,
      "courier": 10,
      "breakfast-b": 120,
      "breakfast-f": 6,
      "x-print": 70,
      "x-disc": "",
      "address": "北京市海淀区花园北路35号  健康智谷B1层",
      "phone": "400-617-7999",
      "hours": "周一到周日  7:00-21:00",
      "desk-phone": "",
      "time": "7:30--10:30    值班到16:00    ",
      "bus-line": "地铁：10号线牡丹园站A或B口出往北900米即到\n公交：47、484、331、94、609、花园北路下车步行50米即到。\n16、425、635、508、645、花园东路下车步行50米即到"
    },
    {
      "province": "吉林",
      "city": "长春",
      "name": "朝阳分院",
      "state": "开放",
      "support": "不支持",
      "standard": "",
      "printing": 50,
      "courier": 15,
      "breakfast-b": 100,
      "breakfast-f": "100元以上套餐免费",
      "x-print": 30,
      "x-disc": "无",
      "address": "长春市建设街888号",
      "phone": "400-6563-965",
      "hours": "周一-周五8:00——16:30\n周六：8:00——11:30",
      "desk-phone": 81858585,
      "time": "周一-周五8:00——16:30\n周六：8:00-11:30",
      "bus-line": "乘车指南：25路，80路，271路到建设街站下车\n"
    },
    {
      "province": "吉林",
      "city": "长春",
      "name": "南关分院",
      "state": "开放",
      "support": "不支持",
      "standard": "",
      "printing": 50,
      "courier": 15,
      "breakfast-b": 100,
      "breakfast-f": "100元以上套餐免费",
      "x-print": 30,
      "x-disc": "无",
      "address": "长春市解放大路438号",
      "phone": "400-6563-965",
      "hours": "周一-周五8:00——16:30\n周六：8:00——11:30",
      "desk-phone": 88628105,
      "time": "周一-周五8:00——16:30\n周六：8:00-11:30",
      "bus-line": "乘车指南：61路，361路，5路，9路到南关站下车"
    },
    {
      "province": "湖南",
      "city": "长沙",
      "name": "芙蓉分院",
      "state": "开放",
      "support": "不支持",
      "standard": "",
      "printing": 10,
      "courier": "已发件为准",
      "breakfast-b": "高于100",
      "breakfast-f": 10,
      "x-print": "不支持",
      "x-disc": "不支持",
      "address": "长沙市芙蓉区远大一路132号天友大酒店南栋",
      "phone": "400-162-8028\n",
      "hours": "周一-周五8:00——17:30\n周六：8:00-11:30",
      "desk-phone": "0731-88311366",
      "time": "周一-周五8:00——17:30\n周六：8:00-11:30",
      "bus-line": "南湖大市场: 110、112、114、126、127、158、139、405、 908\n乘到火车站向远大路紫东阁华天大酒店方向向前步行300米"
    },
    {
      "province": "湖南",
      "city": "长沙",
      "name": "天心分院",
      "state": "已经开业,必须达到350元以上",
      "support": "不支持",
      "standard": "",
      "printing": 10,
      "courier": "已发件为准",
      "breakfast-b": "高于100",
      "breakfast-f": 10,
      "x-print": "不支持",
      "x-disc": "不支持",
      "address": "长沙市天心区芙蓉南路一段758号和庄大厦A区1号栋三楼\n",
      "phone": "400-162-8028\n",
      "hours": "周一-周五8:00——16:30\n周六：8:00-11:30",
      "desk-phone": "0731-82716868",
      "time": "周一-周五8:00——16:30\n周六：8:00-11:30",
      "bus-line": "105，125，140，152，701 木莲冲路口站下前行100米\n"
    },
    {
      "province": "湖南",
      "city": "长沙",
      "name": "岳麓分院",
      "state": "已经开业,必须达到350元以上",
      "support": "不支持",
      "standard": "",
      "printing": 10,
      "courier": "已发件为准",
      "breakfast-b": "高于100",
      "breakfast-f": 10,
      "x-print": "不支持",
      "x-disc": "不支持",
      "address": "长沙市岳麓区银盆南路227号火炬城M1组团A座301",
      "phone": "400-162-8028\n",
      "hours": "周一-周五8:00——17:30\n周六：8:00-11:30",
      "desk-phone": "0731-88291122",
      "time": "周一-周五8:00——17:30\n周六：8:00-11:30",
      "bus-line": ""
    },
    {
      "province": "湖南",
      "city": "长沙",
      "name": "芙蓉分院",
      "state": "开放",
      "support": "不支持",
      "standard": "",
      "printing": 10,
      "courier": 10,
      "breakfast-b": "默认100",
      "breakfast-f": 10,
      "x-print": "50/张",
      "x-disc": "",
      "address": "长沙市芙蓉区远大一路132号天友大酒店南栋",
      "phone": "400-162-8028\n",
      "hours": "周一-周五8:00——17:30\n周六：8:00-11:30",
      "desk-phone": "0731-88311366",
      "time": "周一-周五8:00——17:00\n周六：8:00-11:30",
      "bus-line": "南湖大市场: 110、112、114、126、127、158、139、405、 908\n乘到火车站向远大路紫东阁华天大酒店方向向前步行300米"
    },
    {
      "province": "湖南",
      "city": "长沙",
      "name": "天心分院",
      "state": "已经开业,必须达到350元以上",
      "support": "不支持",
      "standard": "",
      "printing": 10,
      "courier": 10,
      "breakfast-b": "默认100",
      "breakfast-f": 10,
      "x-print": "50/张",
      "x-disc": "",
      "address": "长沙市天心区芙蓉南路一段758号和庄大厦A区1号栋三楼\n",
      "phone": "400-162-8028\n",
      "hours": "周一-周五8:00——16:30\n周六：8:00-11:30",
      "desk-phone": "0731-82716868",
      "time": "周一-周五8:00——17:00\n周六：8:00-11:30",
      "bus-line": "105，125，140，152，701 木莲冲路口站下前行100米\n"
    },
    {
      "province": "湖南",
      "city": "长沙",
      "name": "岳麓分院",
      "state": "已经开业,必须达到350元以上",
      "support": "不支持",
      "standard": "",
      "printing": 10,
      "courier": 10,
      "breakfast-b": "默认100",
      "breakfast-f": 10,
      "x-print": "50/张",
      "x-disc": "",
      "address": "长沙市岳麓区银盆南路227号火炬城M1组团A座301",
      "phone": "400-162-8028\n",
      "hours": "周一-周五8:00——17:30\n周六：8:00-11:30",
      "desk-phone": "0731-88291122",
      "time": "周一-周五8:00——17:00\n周六：8:00-11:30",
      "bus-line": ""
    },
    {
      "province": "湖南",
      "city": "长沙",
      "name": "定王分院",
      "state": "已经开业,必须达到350元以上",
      "support": "",
      "standard": "",
      "printing": 0.0,
      "courier": "",
      "breakfast-b": 0.0,
      "breakfast-f": 10,
      "x-print": "50/张",
      "x-disc": "",
      "address": "长沙市芙蓉区芙蓉中路二段111号华菱大厦4-5楼",
      "phone": "400-162-8028\n",
      "hours": "周一-周五8:00——17:30\n周六：8:00-11:30",
      "desk-phone": "0731-88315678",
      "time": "周一-周五8:00——17:00\n周六：8:00-11:30",
      "bus-line": ""
    },
    {
      "province": "江苏",
      "city": "常熟",
      "name": "常熟分院",
      "state": "开放",
      "support": "不支持",
      "standard": "",
      "printing": 10,
      "courier": 10,
      "breakfast-b": 120,
      "breakfast-f": 10,
      "x-print": "不能",
      "x-disc": "不能",
      "address": "黄河路22号汇丰时代广场2号楼1-2层",
      "phone": "0512-52688333-8888",
      "hours": "周一到周日  7:30-17：00",
      "desk-phone": "0512-52688333",
      "time": "周一到周日7:30-10:00",
      "bus-line": "泊车位：103路、119路、1路（市民卡中心人武部下），即到美年门口；2路、112路、113路、212路（常熟客运站海虞北路下），向北走200米即到；5路（泰慈花园常熟客运北站下），向西200米，海虞北路右转弯即到。"
    },
    {
      "province": "江苏",
      "city": "常州",
      "name": "常州美年大健康门诊部有限公司",
      "state": "",
      "support": "不支持",
      "standard": "无",
      "printing": 10,
      "courier": 10,
      "breakfast-b": 100,
      "breakfast-f": 5,
      "x-print": 50,
      "x-disc": "不支持",
      "address": "常州市钟楼区怀德中路澜天大厦辅楼1-4层",
      "phone": 4001686662.0,
      "hours": "周一至周日7:00-19:00",
      "desk-phone": "0519-69656407",
      "time": "周二至周日7:30-12：:00",
      "bus-line": "B2、B22"
    },
    {
      "province": "辽宁",
      "city": "朝阳",
      "name": "朝阳美年大健康分院",
      "state": "对异地开放",
      "support": "不支持",
      "standard": "无",
      "printing": 10,
      "courier": "对方付费",
      "breakfast-b": 80,
      "breakfast-f": 4,
      "x-print": 35,
      "x-disc": 10,
      "address": "辽宁省朝阳市双塔区珠江路三段40号",
      "phone": "0421-2577999/888",
      "hours": "周一至周五8:00-17:00           周六8：00-12:00",
      "desk-phone": "0421-2579886",
      "time": "周一至周六7:30-12:00（冬季）   周一至周六7:00-12:00（夏季）",
      "bus-line": "市内可乘坐1路2路19路公交车市林业局下车"
    },
    {
      "province": "四川",
      "city": "成都",
      "name": "高新一分院",
      "state": "开放",
      "support": "支持",
      "standard": 100,
      "printing": 20,
      "courier": "根据报告数量定",
      "breakfast-b": "默认100",
      "breakfast-f": 10,
      "x-print": "不能打印",
      "x-disc": 20,
      "address": "高新区府城大道399号天府新谷一楼",
      "phone": "400-028-8050",
      "hours": "周一-周五8:00——16:00\n周六：8:00-11:30",
      "desk-phone": "028-85185975-8011",
      "time": "周一-周五8:00——16:00\n周六：8:00-11:30",
      "bus-line": "93.84.120.824市一医院站下车"
    },
    {
      "province": "四川",
      "city": "成都",
      "name": "金牛分院",
      "state": "开放",
      "support": "支持",
      "standard": 100,
      "printing": 20,
      "courier": "根据报告数量定",
      "breakfast-b": "默认100",
      "breakfast-f": 10,
      "x-print": "不能打印",
      "x-disc": 20,
      "address": "金牛区金沙路15号",
      "phone": "400-028-8050",
      "hours": "周一-周五8:00——16:00\n周六：8:00-11:30",
      "desk-phone": "028-68003333",
      "time": "周一-周五8:00——16:00\n周六：8:00-11:30",
      "bus-line": "4路、7路、11路、37路、62路、86路 营门口立交桥东下车"
    },
    {
      "province": "四川",
      "city": "成都",
      "name": "凯尔分院",
      "state": "开放",
      "support": "支持",
      "standard": 100,
      "printing": 20,
      "courier": "根据报告数量定",
      "breakfast-b": "默认100",
      "breakfast-f": 10,
      "x-print": "不能打印",
      "x-disc": 20,
      "address": "二环路南四段36号一楼",
      "phone": "400-028-8050",
      "hours": "周一-周五8:00——16:00\n周六：8:00-11:30",
      "desk-phone": "028-85092288",
      "time": "周一-周五8:00——16:00\n周六：8:00-11:30",
      "bus-line": "51路、52路、111路、11路、502A路、307路、406路、92路、84路、802路、K1/K2快速公交"
    },
    {
      "province": "四川",
      "city": "成都",
      "name": "武侯分院",
      "state": "开放",
      "support": "支持",
      "standard": 100,
      "printing": 20,
      "courier": "根据报告数量定",
      "breakfast-b": "默认100",
      "breakfast-f": 10,
      "x-print": "不能打印",
      "x-disc": 20,
      "address": "武侯区浆洗街27号天亿大厦一楼",
      "phone": "400-028-8050",
      "hours": "周一-周五8:00——16:00\n周六：8:00-11:30",
      "desk-phone": "028-85551212",
      "time": "周一-周五8:00——16:00\n周六：8:00-11:30",
      "bus-line": "28.82.304.93浆洗街站下车"
    },
    {
      "province": "四川",
      "city": "成都",
      "name": "星辉分院",
      "state": "开放",
      "support": "支持",
      "standard": 100,
      "printing": 20,
      "courier": "根据报告数量定",
      "breakfast-b": "默认100",
      "breakfast-f": 10,
      "x-print": "不能打印",
      "x-disc": 20,
      "address": "金牛区星辉西路12号",
      "phone": "400-028-8050",
      "hours": "周一-周五8:00——16:00\n周六：8:00-11:30",
      "desk-phone": "028-68176025-8222",
      "time": "周一-周五8:00——16:00\n周六：8:00-11:30",
      "bus-line": "乘车指南：16路、55路、98路、298路、300路人民北路一段南站下车\n75路、42路星辉西路站下车\n"
    },
    {
      "province": "云南",
      "city": "大理",
      "name": "大理美年大健康体检医院",
      "state": "开放",
      "support": "不支持",
      "standard": "无",
      "printing": 10,
      "courier": "对方付",
      "breakfast-b": 80,
      "breakfast-f": 5,
      "x-print": 20,
      "x-disc": "不支持",
      "address": "大理市经济开发区苍山东路539号大理国际会展中心2楼",
      "phone": "400-623-6300",
      "hours": "周一至周日7:30-17:30",
      "desk-phone": "400-623-6300",
      "time": "周一至周日 7:30-12：00  值班到5:30   ",
      "bus-line": "市内乘13路、1路、7路公交车 宝源小区站下"
    },
    {
      "province": "辽宁",
      "city": "大连",
      "name": "付家庄精品店",
      "state": "开放",
      "support": "不支持",
      "standard": "",
      "printing": 10,
      "courier": "省内12省外23",
      "breakfast-b": 160,
      "breakfast-f": 5,
      "x-print": 50,
      "x-disc": "不支持",
      "address": "辽宁省大连市西岗区滨海西路63-8号",
      "phone": "0411-39686969\n解读报告：0411-39647663",
      "hours": "周一-周五7:30——15:00\n周六：7:30-11:30",
      "desk-phone": 18018966512.0,
      "time": "周一-周五7:30——16:00\n周六：7:30-11:30",
      "bus-line": "乘车指南：5路、47路、501路、541路、702路到市委党校下车\n"
    },
    {
      "province": "湖北",
      "city": "大冶",
      "name": "",
      "state": "开放",
      "support": "不支持",
      "standard": "",
      "printing": 10,
      "courier": 10,
      "breakfast-b": "默认100",
      "breakfast-f": 5,
      "x-print": 50,
      "x-disc": "",
      "address": "大冶市梦湖书苑三楼",
      "phone": "400-884-5553",
      "hours": "周一-周五7:30——15:30\n周六：7:30-12:00",
      "desk-phone": "0714-8896688",
      "time": "周一-周五7:30——13:30\n周六：7:30-12:00",
      "bus-line": "乘车指南：8路车"
    },
    {
      "province": "辽宁",
      "city": "丹东",
      "name": "丹东分院",
      "state": "开放",
      "support": "不支持",
      "standard": "不支持",
      "printing": 10,
      "courier": "到付",
      "breakfast-b": 100,
      "breakfast-f": 10,
      "x-print": 30,
      "x-disc": "不支持",
      "address": "丹东市元宝区平安街21号（东升御景苑）",
      "phone": "4001076078\n0415-2766306",
      "hours": "周一-周五8:00——17:00\n周六：8:00-12:00",
      "desk-phone": "0415-4202888\n",
      "time": "周一到周六8:00-12:00  周一到周五值班到15:00",
      "bus-line": "乘102、104、110、302路公交车在第一医院站下车西行100米"
    },
    {
      "province": "四川",
      "city": "德阳",
      "name": "德阳美年大健康体检医院有限公司",
      "state": "开放",
      "support": "不支持",
      "standard": "",
      "printing": 0.0,
      "courier": "到付",
      "breakfast-b": 100,
      "breakfast-f": "不支持",
      "x-print": 30,
      "x-disc": "不支持",
      "address": "德阳市旌阳区庐山南路一段11号",
      "phone": "4001-000-922",
      "hours": "周一到周五  8:30-17:30",
      "desk-phone": "0838-6920109",
      "time": "周一至周六8：00-12：00",
      "bus-line": "公交21、27、29路，中国通信服务下车"
    },
    {
      "province": "广东",
      "city": "东莞",
      "name": "东莞分院",
      "state": "开放",
      "support": "不支持",
      "standard": "",
      "printing": 10,
      "courier": "到付",
      "breakfast-b": 300,
      "breakfast-f": 6,
      "x-print": "50/张",
      "x-disc": "",
      "address": "东莞市南城区元美路黄金花园金裕楼一层二层",
      "phone": "0769-33650333 0769-33659000",
      "hours": "除法定假日休，其他都上班",
      "desk-phone": "0769-33650333",
      "time": "除法定假日休，其他都上班",
      "bus-line": "乘车指南：801、X20、C3路、15路、17路市科技馆站下车；   10路、19路、35路、39路、43路、601路、813路、K1路、K2路到报业大厦站下车"
    },
    {
      "province": "湖北",
      "city": "鄂州",
      "name": "鄂州美年大健康管理有限公司综合门诊部",
      "state": "开放",
      "support": "不支持",
      "standard": "无",
      "printing": 10,
      "courier": "到付",
      "breakfast-b": 200,
      "breakfast-f": 5,
      "x-print": 50,
      "x-disc": "不支持",
      "address": "湖北省鄂州市鄂城区吴都大道炜裕时代广场2号楼4层",
      "phone": "400-100-2757",
      "hours": "周一至周六07：30-12:00",
      "desk-phone": "0711-3685888",
      "time": "周一至周六07：30-12:00",
      "bus-line": "乘车指南：3路、20路，洋澜小学往吴都大道方向行800米左转"
    },
    {
      "province": "广东",
      "city": "佛山",
      "name": "佛山分院",
      "state": "开放",
      "support": "不支持",
      "standard": "",
      "printing": 10,
      "courier": 10,
      "breakfast-b": 160,
      "breakfast-f": 5,
      "x-print": 50,
      "x-disc": "",
      "address": "佛山市禅城区季华六路15号绿地中心三座三、四楼",
      "phone": "4008-707-828",
      "hours": "周一到周六  8:00-17:01",
      "desk-phone": "4008-707-828",
      "time": "周一-周五7:30——13:30\n周六：7:30-12:00（周日休息）",
      "bus-line": "乘车指南：132路、G13路、151路、146路"
    },
    {
      "province": "福建",
      "city": "福州",
      "name": "福州台江总院",
      "state": "开放",
      "support": "不支持",
      "standard": "无",
      "printing": 20,
      "courier": "到付",
      "breakfast-b": 150,
      "breakfast-f": 6,
      "x-print": 38,
      "x-disc": 20,
      "address": "福州市台江区台江路11号南星商城A楼",
      "phone": "400-897-8855",
      "hours": "周一至周五7：30-19：00；周六周日8：30-17：00",
      "desk-phone": "0591-83289595",
      "time": "周一至周日    7:30--12:00",
      "bus-line": "乘车路线：10路，12路，19路，20路，66路，79路，83路，105路至中亭街站下，6路，13路，19路，25路，29路，319路，321路，37路，50路，66路至青年会站下车。"
    },
    {
      "province": "辽宁",
      "city": "阜新",
      "name": "阜新美年大健康体检中心",
      "state": "开放",
      "support": "不支持",
      "standard": "无",
      "printing": 10,
      "courier": "",
      "breakfast-b": 0.0,
      "breakfast-f": "不支持",
      "x-print": "无",
      "x-disc": "不支持",
      "address": "辽宁省阜新市海州\n区矿工大街39号",
      "phone": "0418-6770000",
      "hours": "周一至周六\n8：00—16：00",
      "desk-phone": "0418-6770000",
      "time": "周一至周六8：00—\n—16：00",
      "bus-line": "环路"
    },
    {
      "province": "四川",
      "city": "广元",
      "name": "广元美年大健康科技有限公司门诊部",
      "state": "开放",
      "support": "不支持",
      "standard": "",
      "printing": 0,
      "courier": "已发件为准",
      "breakfast-b": 0.0,
      "breakfast-f": "",
      "x-print": 0.0,
      "x-disc": "",
      "address": "广元市利州区利州东路三段538-560号",
      "phone": "0839-3606000",
      "hours": "周一到周六上午  7:50-16:00                                       ",
      "desk-phone": "0839-3317972",
      "time": "周一至周六7：50-12：00",
      "bus-line": "公交9、11、16、21路"
    },
    {
      "province": "广东",
      "city": "广州",
      "name": "环市东路体检分院",
      "state": "对异地开放",
      "support": "支持",
      "standard": "无",
      "printing": 10,
      "courier": "到付",
      "breakfast-b": 160,
      "breakfast-f": 5,
      "x-print": 50,
      "x-disc": "不支持",
      "address": "环市东路326号广东亚洲国际大酒店四楼",
      "phone": "4008886155\n",
      "hours": "周一到周日  8:30-17:00",
      "desk-phone": "020-83011836",
      "time": "周五-周三（周四休）",
      "bus-line": "（地铁5号线小北站B出口）"
    },
    {
      "province": "广东",
      "city": "广州",
      "name": "天河东分院",
      "state": "对异地开放",
      "support": "支持",
      "standard": "无",
      "printing": 10,
      "courier": "到付",
      "breakfast-b": 160,
      "breakfast-f": 5,
      "x-print": 50,
      "x-disc": "不支持",
      "address": "广州市天河区天河东路153号富海商业中心1-3层 （K歌王旁地铁3号线石牌桥BTR出口）",
      "phone": "4008886155\n",
      "hours": "周一到周日  8:30-17:00",
      "desk-phone": "020-38267430转100\n",
      "time": "周一、周三到周日 8:30-17:00(周二休息)",
      "bus-line": "1.地铁3号线石牌桥/地铁1号线体育中心"
    },
    {
      "province": "广东",
      "city": "广州",
      "name": "珠江新城分院",
      "state": "对异地开放",
      "support": "支持",
      "standard": "无",
      "printing": 10,
      "courier": "到付",
      "breakfast-b": 160,
      "breakfast-f": 5,
      "x-print": 50,
      "x-disc": "不支持",
      "address": "广州市珠江新城花城大道86号高德汇2座3楼，地铁5号线猎德站A出口左转20米",
      "phone": 4008886155.0,
      "hours": "周一到周日  8:30-17:00",
      "desk-phone": "020-37261363-1\n020-37261385-1",
      "time": "周二到周日  8:30-17:00(周一休息)",
      "bus-line": "1、地铁路线：地铁5号线猎德站A出口直达。\n\n2、公交路线：777路、583路、节假日公交专线1(天河城专线)、20路、45路、旅游公交3线、40路、194路到达猎德地铁站\n"
    },
    {
      "province": "贵州",
      "city": "贵阳",
      "name": "康源分院",
      "state": "开放",
      "support": "不支持",
      "standard": "无",
      "printing": 10,
      "courier": "对方付费",
      "breakfast-b": 100,
      "breakfast-f": "100元以上免费",
      "x-print": 30,
      "x-disc": "无",
      "address": "贵阳市南明区观水路46号",
      "phone": "客服及解读报告：0851-85553058 预约：0851-85553028 ",
      "hours": "周一-周五8:00——16:00\n周六：8:00-12:00",
      "desk-phone": "0851-85552758",
      "time": "周一-周五8:00——16:00\n周六：8:00-12:00",
      "bus-line": "乘车指南：5.10.12.31.35.46.48.52.76.83.262路 宝山南路下车；15.62.34.79.305路观水路口下车；出租车在 地化所 下即可"
    },
    {
      "province": "广西",
      "city": "桂林",
      "name": "临桂正通综合门诊部",
      "state": "开放",
      "support": "不支持",
      "standard": "不支持",
      "printing": "无",
      "courier": "对方付费",
      "breakfast-b": "高于100",
      "breakfast-f": 0,
      "x-print": 50,
      "x-disc": "无",
      "address": "桂林市临桂区临桂镇金水路金水湾.境界“龙脊夕照”4号楼、5号楼（机场路交警大队路口处）",
      "phone": "0773-6925067/6925068/4001002365",
      "hours": "周一周五8:00-12：00,14：00-16:30；周六8：00-12:00",
      "desk-phone": "0773-6925068/067",
      "time": "周一周五8:00-12:00,14:00-15:30；周六8：00-12:00",
      "bus-line": "乘坐 88路 、85路、89路、91路到金水路口下，看到椿记烧鹅（金水湾国际大酒店）往机场路方向步行约400米（途径深圳农村商业银行，港华燃气）"
    },
    {
      "province": "广西",
      "city": "桂林",
      "name": "七星分院",
      "state": "开放",
      "support": "不支持",
      "standard": "不支持",
      "printing": "无",
      "courier": "对方付费",
      "breakfast-b": "高于100",
      "breakfast-f": 0,
      "x-print": 50,
      "x-disc": "无",
      "address": "桂林七星区骖鸾路35号百鑫大厦1、2楼",
      "phone": "0773-7990369",
      "hours": "周一周五8:00-12：00,14：00-16:30；周六8：00-12:00",
      "desk-phone": "0773-7990369",
      "time": "周一周五8:00-12:00,14:00-15:30；周六8：00-12:00",
      "bus-line": "乘坐85路、100路、28路到五里店路下车，23路到骖鸾路南下车，步行约200米"
    },
    {
      "province": "黑龙江",
      "city": "哈尔滨",
      "name": "道外分院",
      "state": "开放",
      "support": "不支持",
      "standard": "",
      "printing": "无",
      "courier": 10,
      "breakfast-b": "默认100",
      "breakfast-f": 5,
      "x-print": 30,
      "x-disc": "",
      "address": "哈尔滨市南直路359号",
      "phone": "0451-83038333",
      "hours": "周一-周五7:30——16:00\n周六：7:30-12:00",
      "desk-phone": "0451-83038333",
      "time": "周一-周六7:30——12:00体检时间\n周六：7:30-12:00",
      "bus-line": "乘车路线：19 、51 、53、 71、 84 、116 、206、省药材公司下车"
    },
    {
      "province": "黑龙江",
      "city": "哈尔滨",
      "name": "南岗分院",
      "state": "开放",
      "support": "不支持",
      "standard": "",
      "printing": "无",
      "courier": 10,
      "breakfast-b": "默认100",
      "breakfast-f": 5,
      "x-print": 30,
      "x-disc": "",
      "address": "哈尔滨市五瑞街40号",
      "phone": "0451-87261112",
      "hours": "周一-周五7:30——16:00\n周六：7:30-12:00",
      "desk-phone": "0451-87261112",
      "time": "周一-周六7:30——12:00体检时间\n周六：7:30-12:00",
      "bus-line": "乘车路线：9、31、55、77、81、83（请在汉广街下车）  75、83、88、93（请在七政街下车）  10、11、63、64、90、92、94、104、107、110、336区间（请在通达街下车），地铁一号线（西大桥下车1B出口。通达街方向前行）"
    },
    {
      "province": "新疆",
      "city": "哈密",
      "name": "哈密分院",
      "state": "开放",
      "support": "不支持",
      "standard": "无",
      "printing": 10,
      "courier": 20,
      "breakfast-b": "默认100",
      "breakfast-f": 10,
      "x-print": "无",
      "x-disc": "无",
      "address": "哈密市美年大健康体检中心建国北路23号 （地区交通局旁） ",
      "phone": "客服联系电话：0902-8218855    0902-2378855",
      "hours": "周一-周六9:00——13:30\n",
      "desk-phone": "0902-2378855",
      "time": "周一-周六9:00——13:30\n",
      "bus-line": "乘车路线：乘4路，8路，9路，12路，14路，17路到公交公司或地区交通局站下车即到"
    },
    {
      "province": "海南",
      "city": "海口",
      "name": "美年大健康体检医院",
      "state": "开放",
      "support": "",
      "standard": "",
      "printing": 10,
      "courier": 10,
      "breakfast-b": 160,
      "breakfast-f": 10,
      "x-print": 35,
      "x-disc": "无",
      "address": "海口市滨江西路南侧海瑞大桥北200米处",
      "phone": "0898-68609333",
      "hours": "周一至周六8：00——16：00",
      "desk-phone": "0898-65815062",
      "time": "周一至周六8：00-17：00",
      "bus-line": "37路至省拘留所，再走路20分钟"
    },
    {
      "province": "河北",
      "city": "邯郸",
      "name": "邯郸美年大健康管理有限公司",
      "state": "开放",
      "support": "不支持",
      "standard": "",
      "printing": "10元",
      "courier": "到付",
      "breakfast-b": "高于100",
      "breakfast-f": 10,
      "x-print": 40,
      "x-disc": "不支持",
      "address": "河北省邯山区中华大街与渚河路交叉口东南角金业大厦",
      "phone": "0310-5761111",
      "hours": "周一至周六7：:00-17:00",
      "desk-phone": "0310-5761102",
      "time": "周一至周六7：:00-16:30",
      "bus-line": "公交5路，12,16,20,33,44,50，"
    },
    {
      "province": "陕西",
      "city": "汉中",
      "name": "汉中美年大健康综合门诊部",
      "state": "开放",
      "support": "不支持",
      "standard": "",
      "printing": 10,
      "courier": "已发件为准",
      "breakfast-b": 100,
      "breakfast-f": "100元以上免费",
      "x-print": 20,
      "x-disc": "无",
      "address": "汉中市汉台区南团结街滨江佳园",
      "phone": "400-9678-166",
      "hours": "周一到周六7:30-16:30",
      "desk-phone": "",
      "time": "8:00-12:00",
      "bus-line": "3/5/21路车"
    },
    {
      "province": "浙江",
      "city": "杭州",
      "name": "滨江分院",
      "state": "对异地开放",
      "support": "不支持",
      "standard": "不支持",
      "printing": 20,
      "courier": "单位统一寄送杭州承担，散客到付",
      "breakfast-b": 160,
      "breakfast-f": "结算价150元/人以上不收费，低于10元/人",
      "x-print": 50,
      "x-disc": "无",
      "address": "杭州市滨江区西兴街道滨盛路海亮大厦2-3层",
      "phone": "400-178-8855\n解读报告：28197265转8006\n",
      "hours": "周一到周五7：30-19:30，周六周日8:00-12:00",
      "desk-phone": 28197265,
      "time": "周二到周日 7:30-10:30  周二到周五值班到16:00 双休值班11:30",
      "bus-line": "泊车：（凭停车票到体检中心前台收银处盖章）\n交通路线: 114路;1504路;b支6路滨盛路通和路口下车\n地铁地铁1号线（江陵路站B出口）"
    },
    {
      "province": "浙江",
      "city": "杭州",
      "name": "西湖分院",
      "state": "对异地开放",
      "support": "不支持",
      "standard": "不支持",
      "printing": 20,
      "courier": "单位统一寄送杭州承担，散客到付",
      "breakfast-b": 160,
      "breakfast-f": "结算价150元/人以上不收费，低于10元/人",
      "x-print": 50,
      "x-disc": "无",
      "address": "杭州市下城区延安路408号浙江二轻大厦二楼",
      "phone": "400-178-8855\n解读报告：28108805\n",
      "hours": "周一到周五7：30-19:30，周六周日8:00-12:00",
      "desk-phone": "28250302转8002",
      "time": "周二到周日 7:30-10:30  周二到周五值班到16:00 双休值班11:30",
      "bus-line": "泊车：（凭停车票到体检中心前台收银处盖章）\n交通路线(孩儿巷):92、290、55、155、10\n地铁1号线（凤起路A出口）"
    },
    {
      "province": "浙江",
      "city": "杭州",
      "name": "萧山分院",
      "state": "对异地开放",
      "support": "不支持",
      "standard": "不支持",
      "printing": 20,
      "courier": "单位统一寄送杭州承担，散客到付",
      "breakfast-b": 160,
      "breakfast-f": "结算价150元/人以上不收费，低于10元/人",
      "x-print": 50,
      "x-disc": "无",
      "address": "杭州市萧山北干街道金城路438号东南科技研发中心4层",
      "phone": "400-178-8855\n解读报告：22852520\n",
      "hours": "周一到周五7：30-19:30，周六周日8:00-12:00",
      "desk-phone": 22850507,
      "time": "周二到周日 7:30-10:30  周二到周五值班到16:00 双休值班11:30",
      "bus-line": "泊车：（凭停车票到体检中心前台收银处盖章）交通路线:231路;232路;300路;701路内环;702路;734路天汇园站下车"
    },
    {
      "province": "浙江",
      "city": "杭州",
      "name": "西溪分院",
      "state": "对异地开放",
      "support": "不支持",
      "standard": "不支持",
      "printing": 20,
      "courier": "单位统一寄送杭州承担，散客到付",
      "breakfast-b": 160,
      "breakfast-f": "结算价150元/人以上不收费，低于10元/人",
      "x-print": 50,
      "x-disc": "无",
      "address": "杭州市西湖区文一西路830号蒋村商务中心4层",
      "phone": "400-178-8855\n解读报告：28237088转7086\n",
      "hours": "周一到周五7：30-19:30，周六周日8:00-12:00",
      "desk-phone": 28237088,
      "time": "周二到周日 7:30-10:30  周二到周五值班到16:00 双休值班11:30",
      "bus-line": "泊车：（凭停车票到体检中心前台收银处盖章）交通路线:24路;25路;25路互联网快线;43路;53路;54路;121b线;121路;121路互联网快线;121路假日区间;186路;194路;203路;215路;226路;599路;蒋未通勤线;临安599路\n蒋村商务中心站下车\n"
    },
    {
      "province": "安徽",
      "city": "合肥",
      "name": "滨湖体检中心",
      "state": "开放",
      "support": "不支持",
      "standard": "无",
      "printing": 10,
      "courier": "到付",
      "breakfast-b": 150,
      "breakfast-f": 10,
      "x-print": "50/张",
      "x-disc": "",
      "address": "合肥市滨湖新区南京路要素大市场A区1号门美年大健康",
      "phone": 4001001288.0,
      "hours": "周一-周五8:00——19:00\n周六：8:30-17:00",
      "desk-phone": 17718183826.0,
      "time": "周三到周一7:30-12：00（抽血截至时间为10:00）",
      "bus-line": "地铁：1号线至滨湖会展中心站       公交：66/64/63/B1至要素大市场站"
    },
    {
      "province": "安徽",
      "city": "合肥",
      "name": "包河体检中心（美欣）",
      "state": "开放",
      "support": "不支持",
      "standard": "无",
      "printing": 10,
      "courier": "到付",
      "breakfast-b": 150,
      "breakfast-f": 10,
      "x-print": "50/张",
      "x-disc": "",
      "address": "合肥市包河区包河大道与乌鲁木齐路交口惠风府前广场",
      "phone": 4001001288.0,
      "hours": "",
      "desk-phone": 17718183824.0,
      "time": "周二到周日7:00-12：00（抽血截至时间为10:00）",
      "bus-line": ""
    },
    {
      "province": "山东",
      "city": "菏泽",
      "name": "菏泽分院",
      "state": "开放",
      "support": "否",
      "standard": "",
      "printing": "无",
      "courier": "同城5元省内8元",
      "breakfast-b": 80,
      "breakfast-f": "免费",
      "x-print": 30,
      "x-disc": "否",
      "address": "人民路龙燕阳光城商务楼3.4层",
      "phone": "0530-7358666",
      "hours": "周一到周六  7:30-17:30                                       预约电话周一到周日24h开通",
      "desk-phone": "0530-7389901  0530-7389900",
      "time": "周一到周六  7:30-17:30                                       预约电话周一到周日24h开通",
      "bus-line": "5路、10路、14路23路到开发区管委会下车"
    },
    {
      "province": "湖南",
      "city": "衡阳",
      "name": "蒸湘分院",
      "state": "",
      "support": "",
      "standard": "",
      "printing": 0.0,
      "courier": "",
      "breakfast-b": 0.0,
      "breakfast-f": "",
      "x-print": 0.0,
      "x-disc": "",
      "address": "湖南省衡阳市蒸湘区船山大道32号星美城市综合体3号楼",
      "phone": "400-900-5363",
      "hours": "周一至周五8点至12点下午2点-5点30",
      "desk-phone": "0734-8877765",
      "time": "周一-周六7：30-12：00",
      "bus-line": "乘车路线：140"
    },
    {
      "province": "内蒙古",
      "city": "呼和浩特",
      "name": "东汇店",
      "state": "开放",
      "support": "无",
      "standard": "无",
      "printing": 10,
      "courier": 22,
      "breakfast-b": 100,
      "breakfast-f": 15,
      "x-print": 40,
      "x-disc": "无",
      "address": "呼和浩特市如意和开发区如意和大街万铭总部基地3号楼五楼",
      "phone": "400-838-0060\n解读报告：400-8380060",
      "hours": "周一-周五7:50——17:00，周六 07:50——12:00\n",
      "desk-phone": "400-8380060",
      "time": "周二-周六7:50——17:00，周日7：50——12:00\n",
      "bus-line": "乘车指南：96、97、53路、美年大健康体检中心下车\n\n"
    },
    {
      "province": "辽宁",
      "city": "葫芦岛",
      "name": "葫芦岛美年大健康管理有限公司龙港同济医院",
      "state": "开放",
      "support": "不支持",
      "standard": "无",
      "printing": 10,
      "courier": "到付",
      "breakfast-b": 100,
      "breakfast-f": "不支持",
      "x-print": 20,
      "x-disc": "不支持",
      "address": "葫芦岛市龙港区玉皇商城文兴南路32号",
      "phone": "0429-2563333",
      "hours": "周一至周五7:30-16:00\n周六：8：00-12:00",
      "desk-phone": "0429-2563333",
      "time": "周一至周日7：20-16：00",
      "bus-line": "公交2路、22路、18路到玉皇商城站或教堂站"
    },
    {
      "province": "湖北",
      "city": "黄冈",
      "name": "黄冈美年健康管理有限公司黄冈美年体检综合门诊部",
      "state": "开放",
      "support": "不支持",
      "standard": "",
      "printing": 10,
      "courier": "到付",
      "breakfast-b": 160,
      "breakfast-f": "",
      "x-print": 50,
      "x-disc": "不支持",
      "address": "黄冈市黄州区黄州大道146号江岸名都一楼商铺 ",
      "phone": "0713-3685999",
      "hours": "周一至周六7：30-17:00",
      "desk-phone": "0713-3685999",
      "time": "周一至周六7：30-12:00",
      "bus-line": "公交2路、22路到纽宾凯站"
    },
    {
      "province": "湖北",
      "city": "黄石",
      "name": "黄石美年大健康磁湖门诊部",
      "state": "开放",
      "support": "不支持",
      "standard": "无",
      "printing": 20,
      "courier": "到付",
      "breakfast-b": 120,
      "breakfast-f": 10,
      "x-print": 60,
      "x-disc": "无",
      "address": "黄石市磁湖路兴港磁湖大厦二至三层",
      "phone": "0714-6282868",
      "hours": "周一至周五7：30-18：00     周六7:30-12:00",
      "desk-phone": "0714-6282868",
      "time": "周一至周五7：30-18：00     周六7:30-12:00",
      "bus-line": "公交5路.6路.27路.23路"
    },
    {
      "province": "江西",
      "city": "吉安",
      "name": "吉安美年大健康体检有限公司",
      "state": "开放",
      "support": "不支持",
      "standard": "",
      "printing": "无",
      "courier": "快递到付",
      "breakfast-b": 80,
      "breakfast-f": "免费",
      "x-print": 28,
      "x-disc": "无",
      "address": "江西省吉安市井冈山大道与复兴路交汇处",
      "phone": 15070685797.0,
      "hours": "周一至周日",
      "desk-phone": "0796-8959103",
      "time": "周一至周六8：00-12:00 14:00-16:30",
      "bus-line": "乘车指南：61路 3路凯旋地产站下"
    },
    {
      "province": "吉林",
      "city": "吉林",
      "name": "丰满分院",
      "state": "对异地开放",
      "support": "不支持",
      "standard": "",
      "printing": 0,
      "courier": 15,
      "breakfast-b": 120,
      "breakfast-f": 0,
      "x-print": 30,
      "x-disc": "",
      "address": "吉林市丰满区世纪广场园林综合楼1-2层",
      "phone": "0432-68543777",
      "hours": "周一到周日  7:00-19:00",
      "desk-phone": 68543777,
      "time": "7:40--10:30    值班到16:00    ",
      "bus-line": "市内乘33.130.3.61路至世纪广场下车"
    },
    {
      "province": "山东",
      "city": "济南",
      "name": "明湖分院",
      "state": "开放",
      "support": "不支持",
      "standard": "",
      "printing": 10,
      "courier": "快递到付",
      "breakfast-b": 100,
      "breakfast-f": 5,
      "x-print": "不支持",
      "x-disc": "不支持",
      "address": "北坦大街5号",
      "phone": "0531-86075588\n解读报告：0531-62351600/18560208781\n\n",
      "hours": "周一至周五上午7:30-11:30.下午13:00-15:30",
      "desk-phone": 15688893387.0,
      "time": "周一-周五7:30-11:30 周六7:30-11:00\n",
      "bus-line": "BIT5、118、83、33、K98、K91到明湖西路济安街站下"
    },
    {
      "province": "山东",
      "city": "济南",
      "name": "建设路分院",
      "state": "开放",
      "support": "不支持",
      "standard": "",
      "printing": 10,
      "courier": "快递到付",
      "breakfast-b": 100,
      "breakfast-f": 5,
      "x-print": "不支持",
      "x-disc": "不支持",
      "address": "建设路84号",
      "phone": "0531-86075588\n解读报告：0531-62351600/18560208781\n\n",
      "hours": "周一至周五上午7:30-11:30，下午13:00-15:30",
      "desk-phone": "0531-86075588",
      "time": "周一-周五7:30-11:30周六7:30-11:00\n",
      "bus-line": " 74、41、K55、K139到建设路刘长山路站下"
    },
    {
      "province": "河南",
      "city": "济源",
      "name": "济源美年大健康科技有限公司门诊部",
      "state": "",
      "support": "不支持",
      "standard": "无",
      "printing": 10,
      "courier": "到付",
      "breakfast-b": 100,
      "breakfast-f": "不支持",
      "x-print": "无",
      "x-disc": "无",
      "address": "济源市沁园南路高新集聚区综合楼下",
      "phone": "0391-6611508/400-098-8855",
      "hours": "周一至周五7：30-17：00 ",
      "desk-phone": "0391-6611508",
      "time": "周一至周五7：30-17：00 周六、周天不休息",
      "bus-line": "乘车指南：106路高压开关厂站下车，往南200米处路东"
    },
    {
      "province": "浙江",
      "city": "嘉兴",
      "name": "嘉兴美年大健康健康管理有限公司南湖门诊部",
      "state": "开放",
      "support": "支持",
      "standard": "100元/人",
      "printing": 20,
      "courier": "到付",
      "breakfast-b": 160,
      "breakfast-f": 8,
      "x-print": 28,
      "x-disc": "不支持",
      "address": "嘉兴市南湖区云东路九曲路口良友国际大厦2-3F",
      "phone": "0573-82888688/83388688",
      "hours": "周二至周六7:30-17",
      "desk-phone": "0573-82888688/83388688",
      "time": "周二至周六 7:30-12：00  值班到5:00   ",
      "bus-line": "公交153、162、163路到国际中港城站下，向东走300米到云东路后直走200米，右转到九曲路，到良友国际大厦1#楼，"
    },
    {
      "province": "广东",
      "city": "江门",
      "name": "江门美年大健康健康管理有限公司",
      "state": "开放",
      "support": "不支持",
      "standard": "无",
      "printing": 20,
      "courier": "到付",
      "breakfast-b": 160,
      "breakfast-f": "免费",
      "x-print": "无",
      "x-disc": "无",
      "address": "江门市北新区万达广场A座4-5层",
      "phone": "0750-3716888",
      "hours": "周二至周日8:00-17：30",
      "desk-phone": "0750-3716888",
      "time": "周二至周日7：30-12：00",
      "bus-line": "乘27、6号到万达广场"
    },
    {
      "province": "河南",
      "city": "焦作",
      "name": "焦作美年大健康体检中心",
      "state": "开放",
      "support": "不支持",
      "standard": "无",
      "printing": 10,
      "courier": 10,
      "breakfast-b": "默认100",
      "breakfast-f": 10,
      "x-print": 20,
      "x-disc": "无",
      "address": "焦作市解放区站前路1049号",
      "phone": "400-0391-120",
      "hours": "周一至周五8：00——17:00\n周六8：00-11:30",
      "desk-phone": "0391-8335339",
      "time": "周一至周六7:30-11:30",
      "bus-line": "乘1、5、7、13、16  、36、37路到火车站下车，向东100米路北"
    },
    {
      "province": "辽宁",
      "city": "锦州",
      "name": "锦州分院解放路店",
      "state": "开放",
      "support": "不支持",
      "standard": "",
      "printing": 10,
      "courier": 10,
      "breakfast-b": 160,
      "breakfast-f": 3,
      "x-print": 30,
      "x-disc": 20,
      "address": "锦州市古塔区解放路三段凯旋大厦19-103号",
      "phone": "0416-2115518",
      "hours": "周一-周五8:00——16:00\n",
      "desk-phone": "0416-3238839",
      "time": "周一-周六\n7:30-12:00",
      "bus-line": "乘4、10、115、118、128、201、206路公交车在锦华街（美年大健康）站下车即是"
    },
    {
      "province": "山西",
      "city": "晋城",
      "name": "晋城市大健康科技健康管理有限公司美年大健康体检站",
      "state": "对异地开放",
      "support": "否",
      "standard": "",
      "printing": "0.5元/张",
      "courier": "无",
      "breakfast-b": 100,
      "breakfast-f": "100元以上早餐免费",
      "x-print": "按相应的出片价格补交差额",
      "x-disc": "无",
      "address": "晋城市城区中原东街115号",
      "phone": "400-1-0356-01",
      "hours": "周一到周日  7:30-17:30                                       预约电话周一到周日24h开通",
      "desk-phone": "无分院",
      "time": "周一到周日 7:30-12：00    3:00-5:30             周日下午休息",
      "bus-line": "市内乘坐12、14路"
    },
    {
      "province": "湖北",
      "city": "荆州",
      "name": "荆州美年大健康管理有限公司",
      "state": "开放",
      "support": "不支持",
      "standard": "无",
      "printing": 10,
      "courier": "到付",
      "breakfast-b": 100,
      "breakfast-f": 5,
      "x-print": 50,
      "x-disc": "不支持",
      "address": "荆州市新城国际广场63栋3楼（首辅路与武德路交汇处）",
      "phone": "0716-8886611",
      "hours": "周一-周五7:30——16:00\n周六：7:30-12:00",
      "desk-phone": "0716-8886611",
      "time": "周一至周六早上\n7:30-12:00",
      "bus-line": "乘坐10路、51路公交车直达（新加坡广场站）下车 乘坐24路、60路公交直达新城广场站（荆州供电公司客户服务中心）下车"
    },
    {
      "province": "云南",
      "city": "昆明",
      "name": "北京路总院",
      "state": "开放",
      "support": "不支持",
      "standard": "无",
      "printing": 10,
      "courier": "",
      "breakfast-b": 100,
      "breakfast-f": "",
      "x-print": 20,
      "x-disc": "不支持",
      "address": "昆明市盘龙区北京路SOHO俊园11-12栋",
      "phone": "4006-120-196\n0871-65031999\n",
      "hours": "周一至周五7:30-18:00\n周六7:30-12:00",
      "desk-phone": "0871-65031771",
      "time": "周一至周六7:30-12:00",
      "bus-line": "公交指南：可乘坐3路 、23路、236路、61路、K5路、71路、79路公交车达到凤凰新村站（奥斯迪购物广场）下车，向联盟路方向步行约50米。\n75路、42路星辉西路站下车\n"
    },
    {
      "province": "云南",
      "city": "昆明",
      "name": "国贸分院",
      "state": "开放",
      "support": "不支持",
      "standard": "无",
      "printing": 10,
      "courier": "",
      "breakfast-b": 100,
      "breakfast-f": "",
      "x-print": 20,
      "x-disc": "不支持",
      "address": "昆明市官渡区春城路289号国际会展中心（老馆）一层1-1展厅",
      "phone": "4006-120-196\n0871-65031999\n",
      "hours": "周一至周五7:30-18:00\n周六7:30-12:00\n",
      "desk-phone": "",
      "time": "周一至周六7:30-12:00",
      "bus-line": "国贸路公交路线：107路、110路、122路、140路、57路、A9路、K12路               春城路公交线路：107路、134路、140路、154路、31路、"
    },
    {
      "province": "云南",
      "city": "昆明",
      "name": "高新分院",
      "state": "开放",
      "support": "不支持",
      "standard": "无",
      "printing": 10,
      "courier": "",
      "breakfast-b": 100,
      "breakfast-f": "",
      "x-print": 20,
      "x-disc": "不支持",
      "address": "高新区滇缅大道2411号金泰国际小区9栋二层商铺",
      "phone": "4006-120-196\n0871-65031999\n",
      "hours": "周一至周五7:30-18:00\n周六7:30-12:00\n",
      "desk-phone": "",
      "time": "周一至周六7:30-12:00",
      "bus-line": "919路a1线，189路，116路，26路"
    },
    {
      "province": "江苏",
      "city": "昆山",
      "name": "昆山总院",
      "state": "对异地开放",
      "support": "不支持",
      "standard": "",
      "printing": 10,
      "courier": 10,
      "breakfast-b": 120,
      "breakfast-f": 10,
      "x-print": "不能",
      "x-disc": 20,
      "address": "柏庐南路中茵广场58号",
      "phone": "0512-57378966-8099/8000",
      "hours": "周一到周五 7:30-17：00   周日7:30-11:30",
      "desk-phone": "57378966-8026",
      "time": "周二到周日7：30-10：00 周一休息",
      "bus-line": "公交线路：2路  11路  16路  18路  20路  29路  111路  122路  125路  126路（雍景湾站）"
    },
    {
      "province": "四川",
      "city": "乐山",
      "name": "乐山分院",
      "state": "开放",
      "support": "不支持",
      "standard": "无",
      "printing": 15,
      "courier": 10,
      "breakfast-b": 100,
      "breakfast-f": 5,
      "x-print": 30,
      "x-disc": "不支持",
      "address": "乐山市市中区柏杨西路新华广场四楼",
      "phone": "0833-2102222",
      "hours": "周一到周五8：00-16：00",
      "desk-phone": "0833-2102222",
      "time": "8：00-14：00",
      "bus-line": "9路、21路、3路、12路"
    },
    {
      "province": "四川",
      "city": "乐山",
      "name": "乐山分院",
      "state": "开放",
      "support": "不支持",
      "standard": "无",
      "printing": 15,
      "courier": 10,
      "breakfast-b": 100,
      "breakfast-f": 5,
      "x-print": 30,
      "x-disc": "不支持",
      "address": "乐山市市中区柏杨西路新华广场四楼",
      "phone": "0833-2102222",
      "hours": "周一到周五8：00-16：00",
      "desk-phone": "0833-2102222",
      "time": "8：00-14：00",
      "bus-line": "9路、21路、3路、12路"
    },
    {
      "province": "辽宁",
      "city": "辽阳",
      "name": "江北分院",
      "state": "开发",
      "support": "不支持",
      "standard": "不支持",
      "printing": "无",
      "courier": "对方付费",
      "breakfast-b": "默认100",
      "breakfast-f": 0,
      "x-print": "25/张",
      "x-disc": "无",
      "address": "辽阳市宏伟区南环街23151号（香港花园对面）",
      "phone": "0419-4935555",
      "hours": "周一-周五7:30——16:30\n周六：7:30-11:00",
      "desk-phone": "0419-4236881",
      "time": "周一-周六7:30——11:30\n",
      "bus-line": "10路、7路到香港花园"
    },
    {
      "province": "山东",
      "city": "聊城",
      "name": "聊城美年大健康管理有限公司",
      "state": "聊城美年大健康管理有限公司",
      "support": "",
      "standard": "",
      "printing": 0.0,
      "courier": "",
      "breakfast-b": 0.0,
      "breakfast-f": "",
      "x-print": 0.0,
      "x-disc": "",
      "address": "",
      "phone": "",
      "hours": "",
      "desk-phone": "",
      "time": "",
      "bus-line": ""
    },
    {
      "province": "山东",
      "city": "临沂",
      "name": "临沂一店",
      "state": "开放",
      "support": "不支持",
      "standard": "",
      "printing": 0.0,
      "courier": 10,
      "breakfast-b": 80,
      "breakfast-f": "50元以上套餐免费",
      "x-print": 30,
      "x-disc": "无",
      "address": "临沂市金一路与临西五路交汇处金阳花园店",
      "phone": 4008797365.0,
      "hours": "周二-周日70:3——16:30\n",
      "desk-phone": "0539--7757177",
      "time": "周二-周日7:30--4:30\n周一休息",
      "bus-line": "乘车指南：106路到金阳花园店下车"
    },
    {
      "province": "山东",
      "city": "临沂",
      "name": "临沂一店（金阳花园店）",
      "state": "开放",
      "support": "不支持",
      "standard": "无",
      "printing": "无",
      "courier": "到付",
      "breakfast-b": 80,
      "breakfast-f": "50元以上套餐免费",
      "x-print": 30,
      "x-disc": "无",
      "address": "临沂市兰山区金一路与临西五路交汇处（金阳花园店）",
      "phone": "0539-7757177",
      "hours": "周二-周日70:3——16:30\n",
      "desk-phone": "0539--7757177",
      "time": "周二-周日7:30--4:30\n周一休息",
      "bus-line": "乘车指南：106路到金阳花园站下车"
    },
    {
      "province": "山东",
      "city": "临沂",
      "name": "临沂万兴都分院",
      "state": "开放",
      "support": "不支持",
      "standard": "无",
      "printing": "无",
      "courier": "到付",
      "breakfast-b": 100,
      "breakfast-f": "100以上套餐免费",
      "x-print": 30,
      "x-disc": "无",
      "address": "临沂市兰山区涑河南街3号万兴都2号楼3F（西城门入口处）",
      "phone": "0539-7971977",
      "hours": "周二-周日7：30-16:30",
      "desk-phone": "0539--7971988",
      "time": "周二-周日7:30--4:30\n周一休息",
      "bus-line": "乘车指南：87路、10路、BRT至振华购物中心站下车"
    },
    {
      "province": "广西",
      "city": "柳州",
      "name": "柳州美年",
      "state": "开放",
      "support": "不支持",
      "standard": "无",
      "printing": 30,
      "courier": "到付",
      "breakfast-b": 80,
      "breakfast-f": "免费",
      "x-print": 50,
      "x-disc": "不支持",
      "address": "柳州市晨华路12号盛丰国际A座2-1",
      "phone": "400-7275558",
      "hours": "周一至周五8点至16:30",
      "desk-phone": "",
      "time": "周一至周六7:40至12:00",
      "bus-line": "市内可乘坐公交：54、69、75、76、78、80、90路在文昌路西下车"
    },
    {
      "province": "山西",
      "city": "吕梁",
      "name": "吕梁分院",
      "state": "开放",
      "support": "不支持",
      "standard": "",
      "printing": 10,
      "courier": 10,
      "breakfast-b": 160,
      "breakfast-f": 0,
      "x-print": 30,
      "x-disc": "",
      "address": "滨河北西路一号",
      "phone": "0358-8257666",
      "hours": "周一--周六07:40——12:00\n周一-周五：14:30-17:30",
      "desk-phone": "0358-8257666",
      "time": "周一--周六07:40——12:00\n周一-周五：14:30-17:30",
      "bus-line": 306
    },
    {
      "province": "河南",
      "city": "洛阳",
      "name": "西工分院",
      "state": "开发",
      "support": "不支持",
      "standard": "无",
      "printing": "10元",
      "courier": "根据情况定",
      "breakfast-b": 80,
      "breakfast-f": "结算价150元/人以上不收费，",
      "x-print": 50,
      "x-disc": "不支持",
      "address": "西工区九都路与解放路交叉口东北角",
      "phone": "400-639-3650",
      "hours": "周一到周日8：00-17：00",
      "desk-phone": "0379-61106699",
      "time": "周一至周六7:30-12：00",
      "bus-line": "2路，7路，69路，45路，62路，20路，49路"
    },
    {
      "province": "河南",
      "city": "洛阳",
      "name": "洛龙分院",
      "state": "开发",
      "support": "不支持",
      "standard": "无",
      "printing": "10元",
      "courier": "根据情况定",
      "breakfast-b": 80,
      "breakfast-f": "结算价150元/人以上不收费，",
      "x-print": 50,
      "x-disc": "不支持",
      "address": "新区体育场出入境大厅西侧",
      "phone": "400-639-3650",
      "hours": "周一到周日8：00-17：00",
      "desk-phone": "0379-60669076",
      "time": "周二至周日7:30-12：00",
      "bus-line": "70路，49路"
    },
    {
      "province": "河南",
      "city": "洛阳",
      "name": "高新分院",
      "state": "开放",
      "support": "不支持",
      "standard": "无",
      "printing": "无",
      "courier": "到付",
      "breakfast-b": 80,
      "breakfast-f": "100元以上免费",
      "x-print": "不打印",
      "x-disc": "不支持",
      "address": "洛阳市高新区滨河北路4号（滨河北路与海棠路交叉口，凯旋门七号会馆隔壁）",
      "phone": "0379-64333777",
      "hours": "周一-周六7:30——17.00\n",
      "desk-phone": "0379-64332777",
      "time": "周一-周六7:30——12:00\n",
      "bus-line": "乘车指南：可乘坐2路、59路公交车至海棠路下车"
    },
    {
      "province": "河南",
      "city": "漯河",
      "name": "漯河美年大健康管理有限公司",
      "state": "开放",
      "support": "不支持",
      "standard": "无",
      "printing": 10,
      "courier": "到付",
      "breakfast-b": 100,
      "breakfast-f": 5,
      "x-print": "无",
      "x-disc": "不支持",
      "address": "漯河市源汇区嵩山路预湘江路交叉口东北角",
      "phone": "0395-3356789",
      "hours": "周一到周六7：30-17:00",
      "desk-phone": "0395-3356789",
      "time": "周一-周六7:30——12:00\n周六：8:00-11:30",
      "bus-line": "乘车指南：100路，111路到金三角下车向南200米、102到柳江小区下车南走300米。"
    },
    {
      "province": "安徽",
      "city": "马鞍山",
      "name": "美年大健康咨询有限公司",
      "state": "开放",
      "support": "不支持",
      "standard": "无",
      "printing": 0,
      "courier": "到付",
      "breakfast-b": 160,
      "breakfast-f": "免费",
      "x-print": "无",
      "x-disc": "不支持",
      "address": "马鞍山市雨山区雨山西路1150号老报馆时代广场三层",
      "phone": "0555-3880517/3880522",
      "hours": "周一至周六8:00-17:30",
      "desk-phone": "0555-3889988",
      "time": "周一至周六7:00-11:30",
      "bus-line": "可乘13路、14路、20路、26路公交车到鸳鸯小区下"
    },
    {
      "province": "四川",
      "city": "绵阳",
      "name": "绵阳美年大健康",
      "state": "开放",
      "support": "不支持",
      "standard": "",
      "printing": 5,
      "courier": 10,
      "breakfast-b": 80,
      "breakfast-f": 5,
      "x-print": 25,
      "x-disc": "无",
      "address": "绵阳市长虹大道中段51号",
      "phone": "400-874-3388",
      "hours": "周一-周六8:00——17:00\n周六：7:30-11:30",
      "desk-phone": 18990180725.0,
      "time": "周一-周六8:00——12:00\n周六：8:00-11:30",
      "bus-line": "乘车指南：7路、8路、19路、60路、80路、23路、28路、33路、38路市图书馆下车\n75路、42路星辉西路站下车\n"
    },
    {
      "province": "四川",
      "city": "绵阳",
      "name": "绵阳美年大健康",
      "state": "开放",
      "support": "不支持",
      "standard": "",
      "printing": 5,
      "courier": 10,
      "breakfast-b": 80,
      "breakfast-f": 5,
      "x-print": 25,
      "x-disc": "无",
      "address": "绵阳市长虹大道中段51号",
      "phone": "400-874-3388",
      "hours": "周一-周六8:00——17:00\n周六：7:30-11:30",
      "desk-phone": 18990180725.0,
      "time": "周一-周六8:00——12:00\n周六：8:00-11:30",
      "bus-line": "乘车指南：7路、8路、19路、60路、80路、23路、28路、33路、38路市图书馆下车\n75路、42路星辉西路站下车\n"
    },
    {
      "province": "四川",
      "city": "内江",
      "name": "内江美年大健康健康管理有限公司门诊部",
      "state": "开放",
      "support": "不支持",
      "standard": "",
      "printing": 30,
      "courier": "到付",
      "breakfast-b": 160,
      "breakfast-f": "不支持",
      "x-print": 70,
      "x-disc": "不支持",
      "address": "内江市东兴区北环路9号金石广场2幢2层/3层",
      "phone": "0832-2078286",
      "hours": "周一到周五  8:00-16.00",
      "desk-phone": "0832-2388888",
      "time": "周一至周六8.00-12:00",
      "bus-line": "公交102/212/104"
    },
    {
      "province": "江西",
      "city": "南昌",
      "name": "京东分院",
      "state": "开放",
      "support": "不支持",
      "standard": "",
      "printing": 10,
      "courier": 10,
      "breakfast-b": 100,
      "breakfast-f": 15,
      "x-print": 50,
      "x-disc": "不支持",
      "address": "京东大道777号（东城宾馆一楼）",
      "phone": "400-098-8855\n解读报告：0791-86318572",
      "hours": "周一-周日7:00——20:00",
      "desk-phone": "0791-88170910",
      "time": "周二-周日7:30——16:30\n周六：7:30-11:30",
      "bus-line": "乘车指南：7路、207路、208路、220路、308路、511路到桃湖村下车\n\n"
    },
    {
      "province": "江西",
      "city": "南昌",
      "name": "泰安分院",
      "state": "开放",
      "support": "不支持",
      "standard": "",
      "printing": 10,
      "courier": 10,
      "breakfast-b": 100,
      "breakfast-f": 15,
      "x-print": 50,
      "x-disc": "不支持",
      "address": "南昌市红谷滩新区翠林路68号（市政府南门斜对面）",
      "phone": "400-098-8855\n解读报告：0791-86318572",
      "hours": "周一-周日7:00——20:00\n",
      "desk-phone": "0791-83818787",
      "time": "周一-周五7:30——16:30\n周六：7:30-11:30",
      "bus-line": "乘车指南：17路、221路、224路、245路、235路、313路、512路、229路、227路、503路、708路到世茂路口下车\n\n"
    },
    {
      "province": "江西",
      "city": "南昌",
      "name": "美康分院",
      "state": "开放",
      "support": "不支持",
      "standard": "",
      "printing": 10,
      "courier": 10,
      "breakfast-b": 100,
      "breakfast-f": 15,
      "x-print": 50,
      "x-disc": "不支持",
      "address": "南昌市西湖区站前路105号江西省供销物流服务中心大楼5-7层",
      "phone": "400-098-8855\n解读报告：0791-86318572",
      "hours": "周一-周日7:00——20:00",
      "desk-phone": "0791-86311062",
      "time": "周二-周日7:30——16:30\n周六：7:30-11:30",
      "bus-line": "乘车指南：1、2、5、6、9、10、18内、21、22、29、32、\n52、88、89、146、169、201、203、206、212、\n215、221、225、230、232、233（K233）、242、\n248、829、机场公交1线、高铁巴士2线路，老福山站\n\n"
    },
    {
      "province": "江西",
      "city": "南昌",
      "name": "倍康分院",
      "state": "开放",
      "support": "不支持",
      "standard": "",
      "printing": 10,
      "courier": 10,
      "breakfast-b": 100,
      "breakfast-f": 15,
      "x-print": 50,
      "x-disc": "不支持",
      "address": "南昌市东湖区起凤路58号",
      "phone": "400-098-8855\n解读报告：0791-86318572",
      "hours": "周一-周日7:00——20:00",
      "desk-phone": "0791-86813105",
      "time": "周二-周日7:30—12；00",
      "bus-line": "乘车指南：1、8、88、237路到长巷村下车\n\n"
    },
    {
      "province": "江苏",
      "city": "南京",
      "name": "鼓楼分院",
      "state": "开放",
      "support": "支持",
      "standard": 50,
      "printing": 10,
      "courier": 10,
      "breakfast-b": 100,
      "breakfast-f": 10,
      "x-print": 50,
      "x-disc": 20,
      "address": "南京市中山北路49号机械大厦1-4L",
      "phone": "400-889-4018\n解读报告：025-52320253",
      "hours": "周二-周日7:30——16:00\n",
      "desk-phone": "025-52320319",
      "time": "周二至周日 7：30-10：30  周一休息",
      "bus-line": "乘车指南：16路、100路、34路、31路、67路、D2鼓楼站下车，地铁1号线鼓楼站下车\n"
    },
    {
      "province": "江苏",
      "city": "南京",
      "name": "张府园分院",
      "state": "开放",
      "support": "支持",
      "standard": 50,
      "printing": 10,
      "courier": 10,
      "breakfast-b": 100,
      "breakfast-f": 10,
      "x-print": 50,
      "x-disc": 20,
      "address": "南京是建业路98号鸿信大厦2L",
      "phone": "400-889-4018\n解读报告：025-85285523",
      "hours": "周二-周日7:30——16:00\n",
      "desk-phone": "025-85285525",
      "time": "周二至周日 7：30-10：30  周一休息",
      "bus-line": "公交线路：三元巷公交站：16路、33路、35路、41路、100路\n张府园（西）公交站:28路、41路、82路、128路、313路\n"
    },
    {
      "province": "广西",
      "city": "南宁",
      "name": "江南分院",
      "state": "对异地开放",
      "support": "不支持",
      "standard": "不支持",
      "printing": 25,
      "courier": "根据报告数量定",
      "breakfast-b": "默认100",
      "breakfast-f": "无",
      "x-print": 25,
      "x-disc": "无",
      "address": "南宁市白沙大道38-8号川泸国际2楼（维也纳酒店楼上；进口大众旁）",
      "phone": "400-068-0069  0771-4868338",
      "hours": "正常班（7:30-12:00，14:30-17:00）",
      "desk-phone": "0771-4868338",
      "time": "体检时间周一、周三到周日7:30-12:00   下午值班到17:00 ；周二全天休息",
      "bus-line": "市内可乘12/23/29/49/56/86/213/607/705/802路公交车至南国花园站下车即可；乘地铁2号线于“石柱岭站”“B出口“出站（直行50米于星光白沙立交桥下左转大概再走100米即可）"
    },
    {
      "province": "广西",
      "city": "南宁",
      "name": "琅东分院",
      "state": "对异地开放",
      "support": "不支持",
      "standard": "不支持",
      "printing": 25,
      "courier": "根据报告数量定",
      "breakfast-b": "默认100",
      "breakfast-f": "无",
      "x-print": 25,
      "x-disc": "无",
      "address": "南宁市青秀区中越路7号东盟商务区金旺角CASA公馆B座3层",
      "phone": "400-068-0069 0771-4868338",
      "hours": "正常班（7:30-12:00，14:30-17:00）",
      "desk-phone": "0771-4863193、4305858、4867393",
      "time": "体检时间周二至周日7:30-12:00   下午值班到17:00 ；周一全天休息",
      "bus-line": "市内可乘25/56/94/213/609/706路公交车至荣和山水美地站下车即可；地铁1号线到“东盟商务区”C出口往民族影城方向即可，于民族影城正后方楼栋。"
    },
    {
      "province": "江苏",
      "city": "南通",
      "name": "南通美年大健康",
      "state": "开放",
      "support": "不支持",
      "standard": "不支持",
      "printing": 10,
      "courier": "根据报告数量定",
      "breakfast-b": 160,
      "breakfast-f": 6,
      "x-print": 30,
      "x-disc": "不支持",
      "address": "南通市工农南路156号鑫乾广场3楼",
      "phone": "400-828-8995",
      "hours": "周一到周五7:30—16：00周六7:30-11:30",
      "desk-phone": "0513-89128801/89128802",
      "time": "周一到周五7:30—16：00周六7:30-11:30",
      "bus-line": "乘车指南：8路，11路，13路，22路，33路，37路，48路，58路，68路，71路，77路，84路，87路，301路到疾控中心下。"
    },
    {
      "province": "河南",
      "city": "南阳",
      "name": "南阳美年大健康新豫阳光体检",
      "state": "对异地开放",
      "support": "不支持",
      "standard": "不支持",
      "printing": "不收费需院长签字",
      "courier": 10,
      "breakfast-b": 80,
      "breakfast-f": 0,
      "x-print": 20,
      "x-disc": "无",
      "address": "南阳市白河大道华安六号公馆1-3层、（市内乘7/11/28路公交车到白河路泰山路口西下车）",
      "phone": "0377--67071999",
      "hours": "周一到周六7.30-11.30",
      "desk-phone": "0377-66066628",
      "time": "周一到周六7.30-11.30",
      "bus-line": "22路、13路、27路公交车到范蠡路与明山路口下车向西200米路南，2路、18路公交车到仲景路口向东200米路南。 \n"
    },
    {
      "province": "浙江",
      "city": "宁波",
      "name": "宁波海曙美年综合门诊部有限公司",
      "state": "2015.11.9日开放",
      "support": "不支持",
      "standard": "",
      "printing": 20,
      "courier": 10,
      "breakfast-b": 160,
      "breakfast-f": 10,
      "x-print": 50,
      "x-disc": 10,
      "address": "浙江省宁波市海曙区恒茂商务大厦1-2楼（花鸟市场对面）",
      "phone": "400-168-8869",
      "hours": "周一至周日，8:30-21:00",
      "desk-phone": "0574-83864126",
      "time": "周二至周日7:30-12:00",
      "bus-line": "5/9路：到天胜花鸟市场下（最近）体检中心就在边上\n527/33路：市中医院东下\n14路：市检察院下\n/33路/14路"
    },
    {
      "province": "四川",
      "city": "攀枝花 ",
      "name": "攀枝花市美年大健康科技有限公司体检医院",
      "state": "开放",
      "support": "不支持",
      "standard": "无",
      "printing": 10,
      "courier": "到付",
      "breakfast-b": 160,
      "breakfast-f": "无",
      "x-print": 50,
      "x-disc": "无",
      "address": "四川省攀枝花市炳三区机场路96号金海大厦一楼",
      "phone": "0812-3601366/3607122",
      "hours": "周一至周五7：30-18：00     周六7:30-12:00",
      "desk-phone": "0812-3601366",
      "time": "周一至周五7：30-18：00   周六7:30-12:00",
      "bus-line": "公交9路、12路、12路区间车、27路、113路、109路到攀枝花市商业银行站下车上行50米"
    },
    {
      "province": "河南",
      "city": "平顶山",
      "name": "平顶山市美年大健康科技服务有限公司",
      "state": "开放",
      "support": "不支持",
      "standard": "无",
      "printing": "无",
      "courier": "到付",
      "breakfast-b": 80,
      "breakfast-f": 5,
      "x-print": 50,
      "x-disc": "不支持",
      "address": "平顶山市新华区建设路西段建宏国际大厦",
      "phone": "0375-2055599",
      "hours": "周一到周六7：30-17：00",
      "desk-phone": "0375-2055566",
      "time": "周一至周日7：30-12：00",
      "bus-line": "乘车指南：16路，26路，27路，29路，30路，66路，67路，68，Y666"
    },
    {
      "province": "河南",
      "city": "濮阳",
      "name": "濮阳分院",
      "state": "开放",
      "support": "不支持",
      "standard": "",
      "printing": 10,
      "courier": 10,
      "breakfast-b": 160,
      "breakfast-f": 5,
      "x-print": 30,
      "x-disc": "",
      "address": "濮上中路迎宾馆北200米路西",
      "phone": "3093-6123333",
      "hours": "周一-周六7:30——18:00",
      "desk-phone": 6123333,
      "time": "周一-周六07:30——12:00\n",
      "bus-line": "乘车指南：5路、15路、16路、25路\n"
    },
    {
      "province": "山东",
      "city": "青岛",
      "name": "旗舰分院",
      "state": "开放",
      "support": "不支持",
      "standard": "",
      "printing": 10,
      "courier": "12市内",
      "breakfast-b": 80,
      "breakfast-f": 0,
      "x-print": "无",
      "x-disc": "无",
      "address": "香港中路18号（福泰广场B座）",
      "phone": "0532-82656888    0532-66885099\n解读报告：0532-85771380",
      "hours": "周一-周五7:30——15:30\n周六：7:30-12:00",
      "desk-phone": "0532-85771859",
      "time": "周一-周五7:30——15:30\n周六：7:30-12:00",
      "bus-line": "乘车指南：25.26.31.104.110.224.225.228.231.232.304.311.312.314.316.318.321.374.402.501.502.601.761市政府-公交车站\n\n"
    },
    {
      "province": "福建",
      "city": "泉州",
      "name": "泉州丰泽美年大健康管理有限公司",
      "state": "开放",
      "support": "不支持",
      "standard": "不支持",
      "printing": 20,
      "courier": "10元/份",
      "breakfast-b": 160,
      "breakfast-f": "结算价150元/人以上不收费，低于，收6元/人",
      "x-print": 50,
      "x-disc": 10,
      "address": "泉州市丰泽区刺桐路与湖心街交叉路口东湖综合大厦1-4层",
      "phone": "400-615-0888",
      "hours": "周一至周日",
      "desk-phone": "0592-36610888",
      "time": "周二至周日    7:30--12:00",
      "bus-line": "乘车指南：（湖心街中段站）：202、X1、55、23（线务局）：K701\n"
    },
    {
      "province": "山东",
      "city": "日照",
      "name": "日照分院",
      "state": "开发",
      "support": "不支持",
      "standard": "不支持",
      "printing": 10,
      "courier": "根据报告数量定",
      "breakfast-b": "默认100",
      "breakfast-f": 10,
      "x-print": 20,
      "x-disc": "无",
      "address": "日照市迎宾路149号，华东蓝海石油西邻",
      "phone": "0633-8829966",
      "hours": "周一-周日7:30-17:00",
      "desk-phone": "0633-8829988",
      "time": "周一-周日7:30-12:00",
      "bus-line": "6路、10路到市国税下车南行"
    },
    {
      "province": "上海",
      "city": "上海",
      "name": "黄浦分院",
      "state": "开放",
      "support": "不支持",
      "standard": "/",
      "printing": 20,
      "courier": "10元/份",
      "breakfast-b": 160,
      "breakfast-f": 6,
      "x-print": 50,
      "x-disc": "/",
      "address": "上海市黄浦区延安东路175号旺角广场4楼",
      "phone": "400-680-8855",
      "hours": "周一-周日7:30——20:00",
      "desk-phone": "021-63151867  ",
      "time": "周二-周日7:30——10：00",
      "bus-line": "地铁8号线10号线豫园站"
    },
    {
      "province": "上海",
      "city": "上海",
      "name": "静安分院",
      "state": "开放",
      "support": "不支持",
      "standard": "/",
      "printing": 20,
      "courier": "10元/份",
      "breakfast-b": 160,
      "breakfast-f": 6,
      "x-print": 50,
      "x-disc": "/",
      "address": "上海市静安区西康路608号",
      "phone": "400-680-8855",
      "hours": "周一-周日7:30——20:00",
      "desk-phone": "021-52859099  ",
      "time": "周二-周日7:30——10：00",
      "bus-line": "地铁7号线昌平路"
    },
    {
      "province": "上海",
      "city": "上海",
      "name": "浦东长航分院",
      "state": "开放",
      "support": "不支持",
      "standard": "/",
      "printing": 20,
      "courier": "10元/份",
      "breakfast-b": 160,
      "breakfast-f": 6,
      "x-print": 50,
      "x-disc": "/",
      "address": "上海市浦东新区崂山路523号",
      "phone": "400-680-8855",
      "hours": "周一-周日7:30——20:00",
      "desk-phone": "021-58362588",
      "time": "周二-周日7:30——10：00",
      "bus-line": "交通路线(东方路潍坊路站):130、451、219、610、522、597、989、980\n地铁2、4、6、9号线（世纪大道站12号出口）\n"
    },
    {
      "province": "上海",
      "city": "上海",
      "name": "浦东齐鲁分院",
      "state": "开放",
      "support": "不支持",
      "standard": "/",
      "printing": 20,
      "courier": "10元/份",
      "breakfast-b": 160,
      "breakfast-f": 6,
      "x-print": 50,
      "x-disc": "/",
      "address": "上海市浦东新区东方路836号齐鲁大厦3楼",
      "phone": "400-680-8855",
      "hours": "周一-周日7:30——20:00",
      "desk-phone": "021-60453691 ",
      "time": "周二-周日7:30——10：00",
      "bus-line": "交通路线(东方路潍坊路站):130、451、219、610、522、597、989、980\n地铁2、4、6、9号线（世纪大道站12号出口）\n"
    },
    {
      "province": "上海",
      "city": "上海",
      "name": "苏河一号分院",
      "state": "开放",
      "support": "不支持",
      "standard": "/",
      "printing": 20,
      "courier": "10元/份",
      "breakfast-b": 160,
      "breakfast-f": 6,
      "x-print": 50,
      "x-disc": "/",
      "address": "上海市闸北区恒丰路638号苏河一号3楼",
      "phone": "400-680-8855",
      "hours": "周一-周日7:30——20:00",
      "desk-phone": "021-22139290  ",
      "time": "周二-周日7:30——10：00",
      "bus-line": "地铁一号线上海火车站3号口"
    },
    {
      "province": "上海",
      "city": "上海",
      "name": "天山分院",
      "state": "开放",
      "support": "不支持",
      "standard": "/",
      "printing": 20,
      "courier": "10元/份",
      "breakfast-b": 160,
      "breakfast-f": 6,
      "x-print": 50,
      "x-disc": "/",
      "address": "上海市长宁区天山路8号",
      "phone": "400-680-8855",
      "hours": "周一-周日7:30——20:00",
      "desk-phone": "021-62900333  ",
      "time": "周二-周日7:30——10：00",
      "bus-line": "交通路线(天山路哈密路站):808、855、74、74B、158、141、202、311、825、750\n地铁2号线（北新泾路站2号出口）\n"
    },
    {
      "province": "上海",
      "city": "上海",
      "name": "五角场分院",
      "state": "开放",
      "support": "不支持",
      "standard": "/",
      "printing": 20,
      "courier": "10元/份",
      "breakfast-b": 160,
      "breakfast-f": 6,
      "x-print": 50,
      "x-disc": "/",
      "address": "上海市杨浦区淞沪路388号创智天地广场4楼",
      "phone": "400-680-8855",
      "hours": "周一-周日7:30——20:00",
      "desk-phone": "021-35360355",
      "time": "周二-周日7:30——10：00",
      "bus-line": "地铁10号线江湾体育场站"
    },
    {
      "province": "上海",
      "city": "上海",
      "name": "小木桥总院",
      "state": "开放",
      "support": "不支持",
      "standard": "/",
      "printing": 20,
      "courier": "10元/份",
      "breakfast-b": 160,
      "breakfast-f": 6,
      "x-print": 50,
      "x-disc": "/",
      "address": "上海市徐汇区小木桥路251号天亿大厦1-3层",
      "phone": "400-680-8855",
      "hours": "周一-周日7:30——20:00",
      "desk-phone": "021-64031199 ",
      "time": "周二-周日7:30——10：00",
      "bus-line": "交通路线(斜土路站):72、572、43、45、104、128、隧一、\n地铁4号线（大木桥路站3号出口）\n"
    },
    {
      "province": "上海",
      "city": "上海",
      "name": "宜山分院",
      "state": "开放",
      "support": "不支持",
      "standard": "/",
      "printing": 20,
      "courier": "10元/份",
      "breakfast-b": 160,
      "breakfast-f": 6,
      "x-print": 50,
      "x-disc": "/",
      "address": "上海市闵行区宜山路1728号",
      "phone": "400-680-8855",
      "hours": "周一-周日7:30——20:00",
      "desk-phone": "021-34627680   ",
      "time": "周二-周日7:30——10：00",
      "bus-line": "交通路线：731、584、931、752\n地铁9号线（合川路站1号出口）\n"
    },
    {
      "province": "江西",
      "city": "上饶",
      "name": "上饶美康医学健康体检中心有限公司",
      "state": "开放",
      "support": "不支持",
      "standard": "无",
      "printing": "无",
      "courier": "",
      "breakfast-b": 100,
      "breakfast-f": "免费",
      "x-print": 50,
      "x-disc": "不支持",
      "address": "上饶市信州区凤凰东大道188号恒基中心二楼美康体检",
      "phone": "0793-8379999",
      "hours": "周一至周六7:30-11：30 13:00-16：30 周日7:30-11:00",
      "desk-phone": "",
      "time": "周二至周日7:30-11：40：00 13:00-17：30",
      "bus-line": "公交6路，18路,11路到商贸城下"
    },
    {
      "province": "广东",
      "city": "深圳",
      "name": "中港城门诊部  （只接团单、不接入职，6月1日起，不接结算价低于500的团单及散客）",
      "state": "对异地开放",
      "support": "不支持",
      "standard": "不支持",
      "printing": 10,
      "courier": "根据报告数量定",
      "breakfast-b": 200,
      "breakfast-f": 5,
      "x-print": 40,
      "x-disc": "无",
      "address": "深圳市福田区福强路3004号中港城3楼（平安银行楼上）",
      "phone": 4009919911.0,
      "hours": "周一到周五  7:30-19:00周末  7:30-17:00",
      "desk-phone": "0755-82730222",
      "time": "周二到周日 8:00-11:30            值班到17:30   周一休息",
      "bus-line": "地铁：三号线龙岗线益田站B出口  公交站点一：益田村站\n76路区间，80路，103路，103路短线，225路，26路，339路，362路，\n375路，377路，4路，71路，B685路，B820路，M347路，M362路，\nM433路，M453路公交线路"
    },
    {
      "province": "广东",
      "city": "深圳",
      "name": "  财富大厦门诊部     （只接团单、不接入职）",
      "state": "对异地开放",
      "support": "不支持",
      "standard": "不支持",
      "printing": 10,
      "courier": "根据报告数量定",
      "breakfast-b": 200,
      "breakfast-f": 5,
      "x-print": 40,
      "x-disc": "无",
      "address": "福田区福华三路88号财富大厦19层",
      "phone": 4009919911.0,
      "hours": "周一到周五  7:30-19:00周末  7:30-17:00",
      "desk-phone": "0755-82726333",
      "time": "周二到周日 8:00-11:30            值班到17:30   周一休息",
      "bus-line": "附近地铁：罗宝线：会展中心   公交车站：福华三路口 235路 33路 34路 371路 374路 50路 60路 62路 64路 71路 76路区间 K113路 M347路 M390路 N9路 高峰专线4 高峰专线车19   财富大厦： 103B路 109路 375路 379路 80路 "
    },
    {
      "province": "广东",
      "city": "深圳",
      "name": "福田红岭分院         （只接团单、不接入职）",
      "state": "对异地开放",
      "support": "不支持",
      "standard": "不支持",
      "printing": 10,
      "courier": "根据报告数量定",
      "breakfast-b": 200,
      "breakfast-f": 5,
      "x-print": 40,
      "x-disc": "无",
      "address": "福田红岭分院  地址：深圳市福田区红岭南路红岭大厦4栋、5栋2楼 ",
      "phone": 4009919911.0,
      "hours": "周一到周五  7:30-19:00周末  7:30-17:00",
      "desk-phone": "0755-25832999",
      "time": "周二到周日 8:00-11:30            值班到17:30   周一休息",
      "bus-line": "公交站点一：巴丁街 公交站点二：红岭南路 地铁：一号线罗宝线大剧院站E出口\n"
    },
    {
      "province": "广东",
      "city": "深圳",
      "name": "南山门诊部  （只接团单、不接入职）",
      "state": "对异地开放",
      "support": "不支持",
      "standard": "不支持",
      "printing": 10,
      "courier": "根据报告数量定",
      "breakfast-b": 200,
      "breakfast-f": 5,
      "x-print": 40,
      "x-disc": "无",
      "address": "深圳市南山区科技园南一道富诚大厦2楼",
      "phone": 4009919911.0,
      "hours": "周一到周五  7:30-19:00周末  7:30-17:00",
      "desk-phone": "0755-86627582",
      "time": "周二到周日 8:00-11:30            值班到17:30   周一休息",
      "bus-line": "大冲①站：204 301 223 329 113 19 123 21 369 101 121 78 70 42 367 45 234 B683 79 M358 M388附近地铁：罗宝线--高新园站"
    },
    {
      "province": "广东",
      "city": "深圳",
      "name": "美年门诊部  （只接团单、不接入职）",
      "state": "对异地开放",
      "support": "不支持",
      "standard": "不支持",
      "printing": 10,
      "courier": "根据报告数量定",
      "breakfast-b": 200,
      "breakfast-f": 5,
      "x-print": 40,
      "x-disc": "无",
      "address": "南山区科苑路6号深圳科技工业园大厦金融中心2栋12楼",
      "phone": 4009919911.0,
      "hours": "周一到周五  7:30-19:00周末  7:30-17:00",
      "desk-phone": "0755-86627091",
      "time": "周二到周日 8:00-11:30            值班到17:30   周一休息",
      "bus-line": "附近地铁：罗宝线：深大站A4出口   公交车站：深南科苑立交北 209路 339路 49路 81路 M200路 M209路 M243路 M299路 高峰专线车11 高峰专线车7 高峰专线车9 机场8线"
    },
    {
      "province": "广东",
      "city": "深圳",
      "name": "招商分院 （入职对接分院）   ",
      "state": "对异地开放",
      "support": "不支持",
      "standard": "不支持",
      "printing": 10,
      "courier": "根据报告数量定",
      "breakfast-b": 200,
      "breakfast-f": 5,
      "x-print": 40,
      "x-disc": "无",
      "address": "深圳市南山区南海大道与东滨路交汇处美年广场5栋7楼",
      "phone": 4009919911.0,
      "hours": "周一到周五  7:30-19:00周末  7:30-17:00",
      "desk-phone": "0755-26812905",
      "time": "周二到周日 8:00-11:30            值班到17:30   周一休息",
      "bus-line": "蛇口沃尔玛站：113 122 204 233 328 329 B605 B602 332 B702 K204 M205 M241 N4"
    },
    {
      "province": "辽宁",
      "city": "沈阳",
      "name": "和平分院",
      "state": "对异地开放",
      "support": "不支持",
      "standard": "不支持",
      "printing": 10,
      "courier": "到付",
      "breakfast-b": 80,
      "breakfast-f": 5,
      "x-print": "DR：每张胶片30元；核磁：每张胶片50元；CT：每张胶片30元（以分院出片为准）",
      "x-disc": "不支持",
      "address": "沈阳市和平区南七马路一号",
      "phone": "4008078079/024-88559559 ",
      "hours": "周一至周日7:00-18:00",
      "desk-phone": "024-67869171",
      "time": "周一到周六8:00-12:00  周一到周五值班到15:00",
      "bus-line": "乘车路线：206、202、203、257、262路 东北汽贸中心站；117、226、103铁西2线 东北汽贸中心北行200米"
    },
    {
      "province": "辽宁",
      "city": "沈阳",
      "name": "皇姑分院",
      "state": "对异地开放",
      "support": "不支持",
      "standard": "不支持",
      "printing": 10,
      "courier": "到付",
      "breakfast-b": 80,
      "breakfast-f": 5,
      "x-print": "DR：每张胶片30元；核磁：每张胶片50元；CT：每张胶片30元（以分院出片为准）",
      "x-disc": "不支持",
      "address": "沈阳市皇姑区黄河南大街32号（居然之家旁）",
      "phone": "4008078079/024-88559559 ",
      "hours": "周一至周日7:00-18:00",
      "desk-phone": "024-67869182",
      "time": "周一到周六8:00-12:00  周一到周五值班到15:00",
      "bus-line": "乘车路线：232、138、231、279、294、326、184黄河大街巴山路站"
    },
    {
      "province": "辽宁",
      "city": "沈阳",
      "name": "浑南分院",
      "state": "对异地开放",
      "support": "不支持",
      "standard": "不支持",
      "printing": 10,
      "courier": "到付",
      "breakfast-b": 80,
      "breakfast-f": 5,
      "x-print": "DR：每张胶片30元；核磁：每张胶片50元；CT：每张胶片30元（以分院出片为准）",
      "x-disc": "不支持",
      "address": "沈阳市浑南新区沈营路9-1号",
      "phone": "4008078079/024-88559559 ",
      "hours": "周一至周日7:00-18:00",
      "desk-phone": "024-23692928",
      "time": "周一到周六8:00-12:00  周一到周五值班到16:00",
      "bus-line": "乘车路线：乘坐214、333、109、126、152、276泛华广场下车（沃尔玛后身）。"
    },
    {
      "province": "辽宁",
      "city": "沈阳",
      "name": "沈河分院",
      "state": "对异地开放",
      "support": "不支持",
      "standard": "不支持",
      "printing": 10,
      "courier": "到付",
      "breakfast-b": 80,
      "breakfast-f": 5,
      "x-print": "核磁：每张胶片50元；CT：每张胶片30元（以分院出片为准）",
      "x-disc": "不支持",
      "address": "沈阳市沈河区奉天街373号",
      "phone": "4008078079/024-88559559 ",
      "hours": "周一至周日7:00-18:00",
      "desk-phone": "024-67869161",
      "time": "周二到周日8:00-12:00  周二到周六值班15:00",
      "bus-line": "乘车路线：224、800、333、253到奉天街奉天街市府路下车"
    },
    {
      "province": "辽宁",
      "city": "沈阳",
      "name": "凤天安泰",
      "state": "对异地开放",
      "support": "不支持",
      "standard": "不支持",
      "printing": 10,
      "courier": "到付",
      "breakfast-b": 80,
      "breakfast-f": 5,
      "x-print": "DR：每张胶片30元；核磁：每张胶片50元；CT：每张胶片30元（以分院出片为准）",
      "x-disc": "不支持",
      "address": "沈阳市沈河区奉天街69号",
      "phone": "4008078079/024-88559559 ",
      "hours": "周一至周日7:00-18:00",
      "desk-phone": "024-31331912",
      "time": "周一到周六8:00-12:00  周一到周五值班到15:00",
      "bus-line": "乘车路线：289、256、800、237、296、287、207、126房地产大厦南下车"
    },
    {
      "province": "辽宁",
      "city": "沈阳",
      "name": "铁西分院",
      "state": "对异地开放",
      "support": "不支持",
      "standard": "不支持",
      "printing": 10,
      "courier": "到付",
      "breakfast-b": 80,
      "breakfast-f": 5,
      "x-print": "核磁：每张胶片50元；CT：每张胶片30元（以分院出片为准）",
      "x-disc": "不支持",
      "address": "沈阳市铁西区兴工北街64号",
      "phone": "4008078079/024-88559559 ",
      "hours": "周一至周日7:00-18:00",
      "desk-phone": "024-67869162",
      "time": "周一到周六8:00-12:00  周一到周五值班到15:00",
      "bus-line": "乘车路线：114、129、252、277、299、预备役号兴工北街下车即是；202、210兴工北街南行150米"
    },
    {
      "province": "湖北",
      "city": "十堰",
      "name": "十堰美年大健康体检中心",
      "state": "开放",
      "support": "不支持",
      "standard": "不支持",
      "printing": 10,
      "courier": "到付",
      "breakfast-b": 100,
      "breakfast-f": 5,
      "x-print": 50,
      "x-disc": "不支持",
      "address": "湖北省十堰市茅箭区天津路88号大洋五洲中央广场2F",
      "phone": "0719-8798899",
      "hours": "周一至周六8：30——16：00",
      "desk-phone": "0719-8798899",
      "time": "周一至周六7：30-12：00",
      "bus-line": "可乘7路、20路、58路公交车到龙津大厦下"
    },
    {
      "province": "河北",
      "city": "石家庄",
      "name": "桥西分院",
      "state": "开放",
      "support": "不支持",
      "standard": "不支持",
      "printing": 10,
      "courier": "到付",
      "breakfast-b": 100,
      "breakfast-f": 10,
      "x-print": "40/张",
      "x-disc": "不做",
      "address": "石家庄市友谊北大街75号",
      "phone": "0311-67668888",
      "hours": "7:00——17:30\n",
      "desk-phone": "无",
      "time": "周一-周六7:30-11：45",
      "bus-line": "乘车路线：乘1路、58路、325路至和平医院站下车（步行至友谊大街北行150米）\n          乘9路、38路、314路至友谊公园站下车（步行至友谊大街南行150米）\n          乘62路至十九中站下车即到\n"
    },
    {
      "province": "吉林",
      "city": "松原",
      "name": "松原分院",
      "state": "开放",
      "support": "不支持",
      "standard": "",
      "printing": 10,
      "courier": "已发件为准",
      "breakfast-b": 80,
      "breakfast-f": "免费",
      "x-print": 30,
      "x-disc": "不支持",
      "address": "松原市宁江区锦江大街330号",
      "phone": "0438-5058666",
      "hours": "周一至周六8：00——16：00",
      "desk-phone": "0438-5098696",
      "time": "周一至周六8：00——16：00",
      "bus-line": "乘车指南-1路，16路 二分局下车"
    },
    {
      "province": "江苏",
      "city": "苏州",
      "name": "东环分院",
      "state": "开放",
      "support": "不支持",
      "standard": "",
      "printing": 10,
      "courier": 10,
      "breakfast-b": 120,
      "breakfast-f": 10,
      "x-print": "不能",
      "x-disc": "不能",
      "address": "苏州市东环路1500号现代创展大厦5楼",
      "phone": "0512-62759366转8099/8000",
      "hours": "周一至周五07：15到17：00，周六、日07：15-14：15\n",
      "desk-phone": "0512-62759366转8599",
      "time": "周二至周日 7：30-10：30  周一休息",
      "bus-line": "公交线路：3路  9路  10路  26路  40路  56路  78路  89路  142路   156路  158路  162路  208路  219路  800路  812路  818路东港新村下"
    },
    {
      "province": "江苏",
      "city": "苏州",
      "name": "相城分院",
      "state": "开放",
      "support": "不支持",
      "standard": "",
      "printing": 10,
      "courier": 10,
      "breakfast-b": 120,
      "breakfast-f": 10,
      "x-print": "不能",
      "x-disc": "不能",
      "address": "苏州市相城区相城大道1539号德诚嘉元广场1-2层",
      "phone": "0512-65810866转8099\n0512-62759366转8099或0",
      "hours": "周一至周五07：15-17：00，周六、日07：15-14：15",
      "desk-phone": "0512-65810866转8299",
      "time": "周二至周日 7：30-10：30  周一休息",
      "bus-line": "公交线路：80路东线  80路西线   81路  83路  89路  819路  ，地铁路线：地铁2号线\n851路\n"
    },
    {
      "province": "湖北",
      "city": "随州",
      "name": "随州市美年大健康管理有限公司",
      "state": "开放",
      "support": "不支持",
      "standard": "不支持",
      "printing": 10,
      "courier": "到付",
      "breakfast-b": 100,
      "breakfast-f": 5,
      "x-print": 24,
      "x-disc": "不支持",
      "address": "随州市曾都区烈山大道201号（涢水宾馆正对面）",
      "phone": "0722-3802222",
      "hours": "周一至周日7：40-17：00",
      "desk-phone": "0722-7082832",
      "time": "周一至周日7：40-17：00",
      "bus-line": "公交101、310、312、313、218、304、305路到北门口站下车向西50米即到"
    },
    {
      "province": "浙江",
      "city": "台州",
      "name": "温岭美年日昇健康体检有限公司",
      "state": "开放",
      "support": "不支持",
      "standard": "",
      "printing": 0.0,
      "courier": 10,
      "breakfast-b": 0.0,
      "breakfast-f": 10,
      "x-print": 0.0,
      "x-disc": "不支持",
      "address": "温岭市中华北路588号",
      "phone": " 0576-81760888",
      "hours": "周一至周五7.30-20.00 周六周日7.30-16.00",
      "desk-phone": " 0576-81760888",
      "time": "周二至周日7：00-16：30",
      "bus-line": "公交车15路 1路 8路"
    },
    {
      "province": "浙江",
      "city": "台州",
      "name": "台州美兆健康体检中心",
      "state": "开放",
      "support": "不支持",
      "standard": "无",
      "printing": 20,
      "courier": "到付",
      "breakfast-b": 160,
      "breakfast-f": "支持",
      "x-print": "50/张",
      "x-disc": "不支持",
      "address": "浙江省台州市市府大道东段2号景和大厦2F",
      "phone": "0576-88396888或400-116-8880",
      "hours": "周一至周五7：30-20：00 周六日7：30-16:00",
      "desk-phone": "0576-88199818",
      "time": "周一至周六7：:30-12:00",
      "bus-line": ""
    },
    {
      "province": "山西",
      "city": "太原",
      "name": "长风分院",
      "state": "开放",
      "support": "不支持",
      "standard": "",
      "printing": 0,
      "courier": "到付",
      "breakfast-b": 100,
      "breakfast-f": 0,
      "x-print": 30,
      "x-disc": "不支持",
      "address": "太原市迎泽区长风街与建设南路十字路口东北角（东风佳苑底商）",
      "phone": "0351-5686677-1",
      "hours": "周一-周日8：00——17:00\n:",
      "desk-phone": "0351-5686677-2-2",
      "time": "周二到周日7：50-10:30（法定节假日除外）",
      "bus-line": "37、619、817、11、55、836、861、808、813、838、23、201、877、901长风街与建设路交叉路口下车向东北角100米。"
    },
    {
      "province": "山西",
      "city": "太原",
      "name": "双东（迎泽）分院",
      "state": "开放",
      "support": "不支持",
      "standard": "",
      "printing": 0,
      "courier": "到付",
      "breakfast-b": 100,
      "breakfast-f": 0,
      "x-print": 30,
      "x-disc": "不支持",
      "address": "太原市双塔东街124号（山西日报社往东100米）",
      "phone": "0351-5686677-1",
      "hours": "周一-周日8：00——17:00\n:",
      "desk-phone": "0351-5686677-2-1",
      "time": "周一到周六7：50-10:30（法定节假日除外）",
      "bus-line": "808、805、4、103、864、801、21、11、812、831山西日报社下车，830、611、861、23双东东口下车往西500米"
    },
    {
      "province": "山西",
      "city": "太原",
      "name": "万达分院",
      "state": "开放",
      "support": "不支持",
      "standard": "",
      "printing": 0,
      "courier": "到付",
      "breakfast-b": 100,
      "breakfast-f": 0,
      "x-print": 30,
      "x-disc": "不支持",
      "address": "太原市万达广场写字楼A座七层",
      "phone": "0351-5686677-1",
      "hours": "周一-周日8：00——17:00\n:",
      "desk-phone": "0351-5686677-2-4",
      "time": "周二到周日7：50-10:30（法定节假日除外）",
      "bus-line": "73、615、820、820支、829、869、878大北门站下车，解放北路 天主教堂对面"
    },
    {
      "province": "山西",
      "city": "太原",
      "name": "漪汾分院",
      "state": "开放",
      "support": "不支持",
      "standard": "",
      "printing": 0,
      "courier": "到付",
      "breakfast-b": 100,
      "breakfast-f": 0,
      "x-print": 30,
      "x-disc": "不支持",
      "address": "太原市漪汾街6号麦特摩尔大厦5层",
      "phone": "0351-5686677-1",
      "hours": "周一-周日8：00——17:00\n:",
      "desk-phone": "0351-5686677-2-3",
      "time": "周一到周六7：50-10:30（法定节假日除外）",
      "bus-line": "6、803、865、602、866、823、845、831、807"
    },
    {
      "province": "山东",
      "city": "泰安",
      "name": "泰安美年大健康体检管理有限公司",
      "state": "开放",
      "support": "不支持",
      "standard": "",
      "printing": 0.0,
      "courier": "到付",
      "breakfast-b": 80,
      "breakfast-f": "4元",
      "x-print": 40,
      "x-disc": "不支持",
      "address": "泰安市御碑楼路67号",
      "phone": 4006660898.0,
      "hours": "周一-周六7:30——17:00\n",
      "desk-phone": "0538-8088809",
      "time": "周一-周六7:30——12:00\n",
      "bus-line": "乘坐15路环城公交车在国华经典下车即到，或者乘坐4路，9路，16路，27路在乐园小区下车，十字路口向北500米。"
    },
    {
      "province": "江苏",
      "city": "泰州",
      "name": "泰州市美年大健康管理有限公司南通路门诊部",
      "state": "开放",
      "support": "",
      "standard": "无",
      "printing": 10,
      "courier": 10,
      "breakfast-b": "默认100",
      "breakfast-f": 5,
      "x-print": 30,
      "x-disc": 10,
      "address": "泰州市海陵区南通路298号",
      "phone": "400-886-3859",
      "hours": "周一到周日8：00-17：00",
      "desk-phone": "0523-82117108",
      "time": "周二至周日7:30-12：00",
      "bus-line": "乘车指南：1路，7路，9路，23路，29路，901路，168路"
    },
    {
      "province": "河北",
      "city": "唐山",
      "name": "高新分院",
      "state": "暂时开放，7月中旬左右要停业装修",
      "support": "不支持",
      "standard": "无",
      "printing": 10,
      "courier": "无",
      "breakfast-b": 80,
      "breakfast-f": "免费",
      "x-print": "无",
      "x-disc": "无",
      "address": "唐山市高新区世纪龙庭A区底商A22号",
      "phone": "0315-3189226",
      "hours": "周一-周五7:50——17:00；周六7:50-11:30；法定节假日休息\n",
      "desk-phone": "0315-3106066",
      "time": "周一-周六：7:30-11:30（法定节假日除外）",
      "bus-line": "乘车指南：59路龙泉中学下车，41、40路龙王庙下车北面十字路口西行200米路北"
    },
    {
      "province": "河北",
      "city": "唐山",
      "name": "路南分院",
      "state": "开放",
      "support": "不支持",
      "standard": "无",
      "printing": 10,
      "courier": "无",
      "breakfast-b": 80,
      "breakfast-f": "免费",
      "x-print": 30,
      "x-disc": "无",
      "address": "唐山市路南区世博广场互联网科技中心A座四层、五层",
      "phone": "0315-3189226",
      "hours": "周一-周五7:50——17:00；周六7:50-11:30；法定节假日休息\n",
      "desk-phone": "0315-3792021",
      "time": "周二-周日：7:30-11:30（法定节假日除外；营业时间如有调整再另行通知）",
      "bus-line": "乘车路线：4路、19路、D01路、26路、36路、38路、40路、41路、54路、64路、66路、210路世博广场东下车；2路、36路、K2路、10路、17路、29路世博广场站下车"
    },
    {
      "province": "山东",
      "city": "滕州",
      "name": "枣庄美年大健康体检服务有限公司",
      "state": "开放",
      "support": "不支持",
      "standard": "",
      "printing": 10,
      "courier": "不支持",
      "breakfast-b": 80,
      "breakfast-f": "不支持",
      "x-print": "30/部位",
      "x-disc": "不支持",
      "address": "滕州市清河路1288号",
      "phone": "0632-5998196",
      "hours": "周一-周日\n早7:30-16:30",
      "desk-phone": "0632-5998196",
      "time": "周一至周日7:30-12:00",
      "bus-line": "公交31路 13路，\n9路，8路 2路"
    },
    {
      "province": "天津",
      "city": "天津",
      "name": "八里台总院",
      "state": "开放",
      "support": "支持",
      "standard": "100元/人",
      "printing": 10,
      "courier": 10,
      "breakfast-b": "默认100",
      "breakfast-f": 10,
      "x-print": "不支持",
      "x-disc": "不支持",
      "address": "天津市南开区卫津南路109号京燕大厦A座5层",
      "phone": "400-630-3999",
      "hours": "周一至周日7:00-19:00；法定节假日休息",
      "desk-phone": "02223377895",
      "time": "体检登记时间周一至周六7:30-10:00；自取报告时间周一至周六13:30-16:00",
      "bus-line": "八里台（南开大学）站：8、12、161、628、662、643、658、675、686、707、832、855、859、952\n\n复康路站：57、95、175、698、707、831、845、866、902、904\n\n天塔站：（聂公桥站）  8、12、观光2、161、628、643、658、675、832、859、866\n\n地铁：3号线天塔站(B出口)"
    },
    {
      "province": "天津",
      "city": "天津",
      "name": "滨海分院",
      "state": "开放",
      "support": "支持",
      "standard": "100元/人",
      "printing": 10,
      "courier": 10,
      "breakfast-b": "默认100",
      "breakfast-f": 10,
      "x-print": "不支持",
      "x-disc": "不支持",
      "address": "天津滨海开发区第三大街捷达路26号1-2层（原大地中心）",
      "phone": "400-630-3999",
      "hours": "周一至周日7:00-19:00；法定节假日休息",
      "desk-phone": 2225636182.0,
      "time": "体检登记时间周一至周六7:30-10:00；自取报告时间周一至周六13:30-16:00",
      "bus-line": "泰达体育场站：880；泰达会馆站：130、459、501、503、507、508、515、517、518、519、520、815、936、937"
    },
    {
      "province": "天津",
      "city": "天津",
      "name": "大光明桥天星分院",
      "state": "开放",
      "support": "支持",
      "standard": "100元/人",
      "printing": 10,
      "courier": 10,
      "breakfast-b": "默认100",
      "breakfast-f": 10,
      "x-print": "不支持",
      "x-disc": "不支持",
      "address": "天津市河东区十一经路81号天星河畔广场6层",
      "phone": "400-630-3999",
      "hours": "周一至周日7:00-19:00；法定节假日休息",
      "desk-phone": "02258853678",
      "time": "体检登记时间周一至周六7:30-10:00；自取报告时间周一至周六13:30-16:00",
      "bus-line": "大光明桥站：600、613、643、651、673、840、842"
    },
    {
      "province": "天津",
      "city": "天津",
      "name": "鼓楼分院",
      "state": "开放",
      "support": "支持",
      "standard": "100元/人",
      "printing": 10,
      "courier": 10,
      "breakfast-b": "默认100",
      "breakfast-f": 10,
      "x-print": "不支持",
      "x-disc": "不支持",
      "address": "天津市南开区鼓楼商业街东街2号楼旅游超市内",
      "phone": "400-630-3999",
      "hours": "周一至周日7:00-19:00；法定节假日休息",
      "desk-phone": "02227285587",
      "time": "体检登记时间周一至周六7:30-10:00；自取报告时间周一至周六13:30-16:00",
      "bus-line": "鼓楼东站：1、4、5、15、24、37、606、609、910、611、619、632、633、634、641、642、646、651、658、659、670、671、672、675、681、688、804、806、818"
    },
    {
      "province": "山东",
      "city": "威海",
      "name": "威海美年大健康管理有限公司",
      "state": "开发",
      "support": "不支持",
      "standard": "无",
      "printing": 0,
      "courier": "到付",
      "breakfast-b": 80,
      "breakfast-f": 5,
      "x-print": "无",
      "x-disc": "不支持",
      "address": "威海市环翠区古寨西路206号",
      "phone": " 0631-5123458    / 400-689-3650  ",
      "hours": "上午8:00到11：30  下午 1:30-16:00\n",
      "desk-phone": "0631-3665678",
      "time": "周一至周日7：00-16:00",
      "bus-line": "乘3路公交可到达"
    },
    {
      "province": "山东",
      "city": "潍坊",
      "name": "美年大健康",
      "state": "开放",
      "support": "不支持",
      "standard": "",
      "printing": 10,
      "courier": "到付",
      "breakfast-b": 100,
      "breakfast-f": 10,
      "x-print": 30,
      "x-disc": "无",
      "address": "奎文区潍州路东风街交叉口北300米路西美年大健康体检中心",
      "phone": "0536-8151555 0536-8161555",
      "hours": "周一至周五上午7：30-12：00、下午13：00-17：00；周六至周日7:30-12:00 ",
      "desk-phone": "",
      "time": "周一至周日\n7：30-12：00",
      "bus-line": "10路，60路。"
    },
    {
      "province": "新疆",
      "city": "乌鲁木齐",
      "name": "新市区门店",
      "state": "开放",
      "support": "不支持",
      "standard": "不支持",
      "printing": 15,
      "courier": "根据报告数量定",
      "breakfast-b": 120,
      "breakfast-f": 0,
      "x-print": 50,
      "x-disc": "无",
      "address": "太原南路610号",
      "phone": "400-036-8855\n解读报告：0991-3633859",
      "hours": "周一-周五10:00——18:00\n周六：10:00-13:31",
      "desk-phone": "0991-3633851",
      "time": "周一-周五09:30——18:00\n周六：10:00-13:31",
      "bus-line": " 公交车站： 153路 68路 运输队下车"
    },
    {
      "province": "江苏",
      "city": "无锡",
      "name": "中山路分院",
      "state": "开放",
      "support": "不支持",
      "standard": "",
      "printing": 6,
      "courier": 10,
      "breakfast-b": "默认100",
      "breakfast-f": 10,
      "x-print": 60,
      "x-disc": "无",
      "address": "江苏省无锡市梁溪区中山路270号智慧广场5-6楼",
      "phone": "电话：0510-68005661",
      "hours": "周一到周日  7:30-16:30",
      "desk-phone": "",
      "time": "周二到周日 7:30-10:30  ",
      "bus-line": "公交，211,20,36,763,703,67,11,65,79,85，大东方百货（崇安寺）下车"
    },
    {
      "province": "江苏",
      "city": "无锡",
      "name": "建筑路分店",
      "state": "对异地开放",
      "support": "不支持",
      "standard": "",
      "printing": 6,
      "courier": 10,
      "breakfast-b": "默认100",
      "breakfast-f": 10,
      "x-print": "无",
      "x-disc": "无",
      "address": "无锡滨湖区建筑路400号",
      "phone": "电话：0510-68005661",
      "hours": "周一到周日  7:30-16:30",
      "desk-phone": "",
      "time": "周二到周日 7:30-10:30  ",
      "bus-line": "53,211,139,36,207,508,63，快3路"
    },
    {
      "province": "江苏",
      "city": "无锡",
      "name": "马山疗养院",
      "state": "不能散约",
      "support": "不支持",
      "standard": "",
      "printing": 6,
      "courier": 10,
      "breakfast-b": "默认100",
      "breakfast-f": 10,
      "x-print": "无",
      "x-disc": "无",
      "address": "无锡马山檀溪1号",
      "phone": "电话：0510-68000556",
      "hours": "周一到周日  7:30-16:30",
      "desk-phone": "",
      "time": "周二到周日 7:30-10:30  ",
      "bus-line": ""
    },
    {
      "province": "安徽",
      "city": "芜湖",
      "name": "芜湖美年大健康咨询有限公司",
      "state": "开放",
      "support": "周二-周日07;00——16:00\n",
      "standard": "0553-7567156",
      "printing": "周二-周日07;00——11:30\n",
      "courier": "公交18路、公交102路",
      "breakfast-b": 0.0,
      "breakfast-f": "",
      "x-print": 0.0,
      "x-disc": "",
      "address": "",
      "phone": "",
      "hours": "",
      "desk-phone": "",
      "time": "",
      "bus-line": ""
    },
    {
      "province": "湖北",
      "city": "武汉",
      "name": "汉口分院",
      "state": "开放",
      "support": "不支持",
      "standard": "",
      "printing": 10,
      "courier": 10,
      "breakfast-b": 100,
      "breakfast-f": 5,
      "x-print": 30,
      "x-disc": 10,
      "address": "武汉市江岸区黄孝河路竹叶山107号花桥大厦1-3层",
      "phone": "027-83668585",
      "hours": "周一-周五7:30——16:00\n周六：7:30-11:30",
      "desk-phone": "",
      "time": "周一-周五7:30——16:00\n周六：7:30-11:30",
      "bus-line": "乘坐516.524.552.608.716.724.729.801.805.809到黄孝河路竹叶山站下"
    },
    {
      "province": "湖北",
      "city": "武汉",
      "name": "汉阳分院",
      "state": "开放",
      "support": "不支持",
      "standard": "",
      "printing": 10,
      "courier": 10,
      "breakfast-b": 100,
      "breakfast-f": 5,
      "x-print": 30,
      "x-disc": 10,
      "address": "汉阳区龙阳大道25号汉江阳光城1-2层",
      "phone": "027-83668585",
      "hours": "周一-周五7:30——16:00\n周六：7:30-11:30",
      "desk-phone": "",
      "time": "周一-周五7:30——16:00\n周六：7:30-11:30",
      "bus-line": "乘坐607路，路，720路，520路，531路803路到郭茨口下.或607.705.707.803到王家湾下"
    },
    {
      "province": "湖北",
      "city": "武汉",
      "name": "光谷分院普检区",
      "state": "开放",
      "support": "不支持",
      "standard": "",
      "printing": 20,
      "courier": "到付",
      "breakfast-b": 100,
      "breakfast-f": 5,
      "x-print": "不支持",
      "x-disc": "不支持",
      "address": "湖北省武汉市洪山区虎泉街228号永利国际大厦3楼",
      "phone": "027-83668585",
      "hours": "周二-周六7:30——17:30\n周天：7:30-12:00",
      "desk-phone": "027-87299720",
      "time": "周二-周六7:30——17:30\n周天：7:30-12:00",
      "bus-line": "地铁2号线杨家湾D出口"
    },
    {
      "province": "湖北",
      "city": "武汉",
      "name": "光谷高端分院",
      "state": "开放",
      "support": "不支持",
      "standard": "",
      "printing": 20,
      "courier": 10,
      "breakfast-b": 100,
      "breakfast-f": 15,
      "x-print": "核磁：每个部位80元，CT：每个部位 50元",
      "x-disc": "",
      "address": "武汉市虎泉街永利国际4楼",
      "phone": "027-83668585",
      "hours": "周二-周六7:30——17:30\n周日：7:30-12:00",
      "desk-phone": "027-87299723",
      "time": "周二-周六7:30——17:30\n周日：7:30-12:00",
      "bus-line": "乘坐811路，路，526路，到楚平路下"
    },
    {
      "province": "湖北",
      "city": "武汉",
      "name": "硚口分院",
      "state": "",
      "support": "不支持",
      "standard": "",
      "printing": 20,
      "courier": "到付",
      "breakfast-b": 100,
      "breakfast-f": 5,
      "x-print": 50,
      "x-disc": "不支持",
      "address": "武汉市解放大道578号中御广场2F",
      "phone": "027-83668585",
      "hours": "周一-周五7:30——17:30\n周六：7:30-12:00",
      "desk-phone": "027-83366520",
      "time": "周一-周五7:30——17:30\n周六：7:30-12:00",
      "bus-line": "乘坐621路，701路，720路，520路，电5路到解放大道同济医院下"
    },
    {
      "province": "湖北",
      "city": "武汉",
      "name": "武昌分院",
      "state": "开放",
      "support": "不支持",
      "standard": "",
      "printing": 10,
      "courier": 10,
      "breakfast-b": 100,
      "breakfast-f": 5,
      "x-print": 30,
      "x-disc": 10,
      "address": "武昌区中北路108号广泽中心4F",
      "phone": "027-83668585",
      "hours": "周一-周五7:30——16:00\n周六：7:30-11:30",
      "desk-phone": "",
      "time": "周一-周五7:30——16:00\n周六：7:30-11:30",
      "bus-line": "乘坐702.583.618.电8"
    },
    {
      "province": "湖北",
      "city": "武汉（高信地区）",
      "name": "高信分院（请看备注）",
      "state": "",
      "support": "不支持",
      "standard": "",
      "printing": 10,
      "courier": 10,
      "breakfast-b": 100,
      "breakfast-f": 5,
      "x-print": 30,
      "x-disc": 10,
      "address": "武汉市江岸区球场街江汉路250号船舶广场1-3F",
      "phone": "027-83668585",
      "hours": "周一-周五7:30——17:30\n周六：7:30-11:30",
      "desk-phone": "027-85798107",
      "time": "周一-周五7:30——16:00\n周六：7:30-11:30",
      "bus-line": "526、532、533、548、553、615、622到京汉大道地铁循礼门站，地铁1号线2号线循礼门站下车"
    },
    {
      "province": "湖北",
      "city": "武汉（江夏地区）",
      "name": "江夏分院（请看备注）",
      "state": "开放",
      "support": "不支持",
      "standard": "",
      "printing": 10,
      "courier": 10,
      "breakfast-b": 100,
      "breakfast-f": "暂无",
      "x-print": "核磁80\nCT50",
      "x-disc": 10,
      "address": "武汉市江夏区文化大道特8号",
      "phone": "027-83668585",
      "hours": "周一-周五7:30——15:00\n周六：7:30-12:00",
      "desk-phone": "027-86698687",
      "time": "周一至周六早上\n7:30-12:00",
      "bus-line": "可乘8路，10路，905路，908路到渔牧村站下"
    },
    {
      "province": "陕西",
      "city": "西安",
      "name": "曲江分院",
      "state": "开放",
      "support": "不支持",
      "standard": "",
      "printing": 10,
      "courier": "到付",
      "breakfast-b": 80,
      "breakfast-f": 10,
      "x-print": "不支持",
      "x-disc": "不支持",
      "address": "西安市雁塔区慈恩西路66号威斯汀酒店西楼",
      "phone": "省内拨打400-899-6699\n省外拨打029-88407861\n",
      "hours": "周一-周五8:00——16:00\n周六：8:00-12:00",
      "desk-phone": "029-68819120",
      "time": "周一-周六8:00——12:00\n",
      "bus-line": "乘车线路：24路，  44路 242  路 503路  34路到大雁塔南广场下车均可到达"
    },
    {
      "province": "陕西",
      "city": "西安",
      "name": "高新分院",
      "state": "开放",
      "support": "不支持",
      "standard": "",
      "printing": 10,
      "courier": "到付",
      "breakfast-b": 80,
      "breakfast-f": 10,
      "x-print": "不支持",
      "x-disc": "不支持",
      "address": "西安市雁塔区南二环西段154号易和蓝钻",
      "phone": "省内拨打400-899-6699\n省外拨打029-88407861\n",
      "hours": "周一-周五8:00——16:00\n周六：8:00-12:00",
      "desk-phone": "029-88828904",
      "time": "周一-周六8:00——12:00\n",
      "bus-line": "乘车线路：201路 308路 212路 207路 402路劳动南路下车即可"
    },
    {
      "province": "陕西",
      "city": "西安",
      "name": "建国分院",
      "state": "开放",
      "support": "不支持",
      "standard": "",
      "printing": 10,
      "courier": "到付",
      "breakfast-b": 80,
      "breakfast-f": 10,
      "x-print": "不支持",
      "x-disc": "不支持",
      "address": "西安市碑林区互助路立交旁互助路2号建国饭店东楼",
      "phone": "省内拨打400-899-6699\n省外拨打029-88407861\n",
      "hours": "周一-周五8:00——16:00\n周六：8:00-12:00",
      "desk-phone": "029-68819127",
      "time": "周一-周六8:00——12:00\n",
      "bus-line": "乘车线路：37路、27路、43路、512路、102路、401路、300路、8路、714路、教育专线、320路，互助路立交下。"
    },
    {
      "province": "陕西",
      "city": "西安",
      "name": "南门分院",
      "state": "开放",
      "support": "不支持",
      "standard": "",
      "printing": 10,
      "courier": "到付",
      "breakfast-b": 80,
      "breakfast-f": 10,
      "x-print": "不支持",
      "x-disc": "不支持",
      "address": "西安市碑林区环城南路西段48号城市郦景大厦",
      "phone": "省内拨打400-899-6699\n省外拨打029-88407861\n",
      "hours": "周一-周五8:00——16:00\n周六：8:00-12:00",
      "desk-phone": "029-68819128",
      "time": "周一-周六8:00——12:00\n",
      "bus-line": "乘车线路:6路、16路、18路、23路、29路、31路、32路、35路、204路、218路、402路、405路、501路、512路、701路、707路、800路、910路、游8(610)路，朱雀门下。"
    },
    {
      "province": "陕西",
      "city": "西安",
      "name": "未央分院",
      "state": "开放",
      "support": "不支持",
      "standard": "",
      "printing": 10,
      "courier": "到付",
      "breakfast-b": 80,
      "breakfast-f": 10,
      "x-print": "不支持",
      "x-disc": "不支持",
      "address": "西安市未央区未央路164号双威迎宾广场3楼",
      "phone": "省内拨打400-899-6699\n省外拨打029-88407861\n",
      "hours": "周一-周五8:00——16:00\n周六：8:00-12:00",
      "desk-phone": "029-68963096",
      "time": "周一-周六8:00——12:00\n",
      "bus-line": "乘车线路：地跌二号线凤城五路站A口向北500左右    50路，207路，209路，214路，238路，600路，702路等张家堡站下车"
    },
    {
      "province": "青海",
      "city": "西宁",
      "name": "西宁美年大健康健康管理有限公司",
      "state": "",
      "support": "不支持",
      "standard": "无",
      "printing": 0.0,
      "courier": "到付",
      "breakfast-b": 0.0,
      "breakfast-f": "不支持",
      "x-print": 50,
      "x-disc": "不支持",
      "address": "青海省西宁市城西区五四大街39-1",
      "phone": "0971-5160222",
      "hours": "周一至周五8：00-1:7：30  周六8:00-12:00",
      "desk-phone": "0971-5160222",
      "time": "周一至周五8：00-1:7：30  周六8:00-12:00",
      "bus-line": "9路、13路、16路、24路、25路、37路、58路、69路、104路，在现代妇产医院站下车向西50米即到"
    },
    {
      "province": "福建",
      "city": "厦门",
      "name": "美年大健康思明门诊部",
      "state": "开放",
      "support": "不支持",
      "standard": "不支持",
      "printing": 20,
      "courier": "10元/份",
      "breakfast-b": 160,
      "breakfast-f": "结算价150元/人以上不收费，低于，收6元/人",
      "x-print": 50,
      "x-disc": 10,
      "address": "厦门市思明区嘉禾路339号四川大厦一层二层",
      "phone": "400-880-9152",
      "hours": "周一至周日",
      "desk-phone": "0592-5255593",
      "time": "周一至周日    7:30--12:00",
      "bus-line": "乘车指南：27、44、109、133、651、657、658、659、755、840、942、950、952、959、994、650路公交。仙岳路口站下即到。"
    },
    {
      "province": "湖南",
      "city": "湘潭",
      "name": "岳塘分院",
      "state": "开放",
      "support": "不支持",
      "standard": "",
      "printing": 10,
      "courier": 10,
      "breakfast-b": "默认100",
      "breakfast-f": 10,
      "x-print": 0.0,
      "x-disc": 10,
      "address": "湘潭市岳塘区吉安路87号吉安大厦1-5层",
      "phone": "0731-52812020",
      "hours": "周一-周六7：30-17：00",
      "desk-phone": "0731-52812020",
      "time": "周一-周六7：30-12：00",
      "bus-line": "3路、24路、8路、101路汽车东站北下"
    },
    {
      "province": "湖北",
      "city": "襄阳",
      "name": "襄阳美年大健康",
      "state": "对异地开放",
      "support": "不支持",
      "standard": "不支持",
      "printing": 10,
      "courier": "已发件为准，到付",
      "breakfast-b": 100,
      "breakfast-f": 10,
      "x-print": 50,
      "x-disc": "不支持",
      "address": "襄阳市樊城区大庆西路31号九悦天城商业裙楼三楼",
      "phone": "0710-3238866/3518866",
      "hours": "周一至周五07:30-17:00\n周六\n7：30-12：00",
      "desk-phone": "0710-2301699",
      "time": "周一至周六早上\n7:30-12:00",
      "bus-line": "大庆路米公路口\n10、511、2"
    },
    {
      "province": "河南省",
      "city": "新乡",
      "name": "新乡分院",
      "state": "开放",
      "support": "不支持",
      "standard": "",
      "printing": 10,
      "courier": "对方付费",
      "breakfast-b": 100,
      "breakfast-f": "100元以上免费",
      "x-print": 0.0,
      "x-disc": "不支持",
      "address": "新乡市红旗区新一街与人民路交汇处向南150米路西",
      "phone": "400-666-3650",
      "hours": "周一到周六8:00-17：00",
      "desk-phone": "0373-5899899",
      "time": "周三到周一7:30-12：00（抽血截至时间为10:00）",
      "bus-line": "乘车线路：7/45/49/61/62人民路新一街站下车"
    },
    {
      "province": "江西",
      "city": "新余",
      "name": "新余美年大健康体检中心",
      "state": "开放",
      "support": "",
      "standard": "",
      "printing": 0.0,
      "courier": "",
      "breakfast-b": "100以上",
      "breakfast-f": "不支持",
      "x-print": 20,
      "x-disc": "不支持",
      "address": "新余市渝水区劳动北路辰光大厦",
      "phone": "400-915-8399",
      "hours": "周一至周六8:00-17:00",
      "desk-phone": "",
      "time": "",
      "bus-line": "到辰光大厦下车即可"
    },
    {
      "province": "河南",
      "city": "信阳",
      "name": "信阳美年大健康管理有限公司综合门诊部",
      "state": "开放",
      "support": "不支持",
      "standard": "无",
      "printing": "无",
      "courier": "到付",
      "breakfast-b": "默认100",
      "breakfast-f": 0,
      "x-print": "无",
      "x-disc": "不支持",
      "address": "信阳市羊山新区新六大街阳光华府西侧\n",
      "phone": "0376-6303333",
      "hours": "周二到周日8.00-17.00",
      "desk-phone": "0376-6303333",
      "time": "周二至周日8.00-17.00",
      "bus-line": "乘车指南：25路，8路"
    },
    {
      "province": "河南",
      "city": "许昌",
      "name": "许昌美年大健康体检中心",
      "state": "对异地开放",
      "support": "不支持",
      "standard": "",
      "printing": 5,
      "courier": "已发件为准",
      "breakfast-b": 80,
      "breakfast-f": 5,
      "x-print": "无",
      "x-disc": "不支持",
      "address": "许昌市东城区许洲路与学府街交叉口向西100米空港新城二期商业楼三楼(许昌高铁站对面，许昌候机楼西邻)",
      "phone": "0374-7071568",
      "hours": "周一到周六7：30-17：00",
      "desk-phone": "0374-7071568",
      "time": "周一到周日,夏季7：30-13:30，冬季7:40-13:20 ",
      "bus-line": "市内可乘坐2路、5路、11路、16路、29路、33路、102路、103路到许昌东站下车"
    },
    {
      "province": "山东",
      "city": "烟台",
      "name": "福田分院",
      "state": "开放",
      "support": "不支持",
      "standard": "不支持",
      "printing": 10,
      "courier": "对方付费",
      "breakfast-b": 80,
      "breakfast-f": 8,
      "x-print": 30,
      "x-disc": "无",
      "address": "烟台市芝罘区大马路128号",
      "phone": "0535-6872222",
      "hours": "周一-周日7:00-16:30",
      "desk-phone": "0535-6872222",
      "time": "周一至周日7:00-11:30",
      "bus-line": "82,3,49,28路旅游大世界下车"
    },
    {
      "province": "山东",
      "city": "烟台",
      "name": "开发区分院",
      "state": "开放",
      "support": "不支持",
      "standard": "不支持",
      "printing": 10,
      "courier": "对方付费",
      "breakfast-b": 80,
      "breakfast-f": 8,
      "x-print": 30,
      "x-disc": "无",
      "address": "烟台市开发区金沙江路163号",
      "phone": "0535-3380666",
      "hours": "周一-周日7:00-16:30",
      "desk-phone": "0535-3380666",
      "time": "周一至周日7:00-11:30",
      "bus-line": "526、206路到福莱山公园下车"
    },
    {
      "province": "吉林",
      "city": "延吉",
      "name": "长白分院",
      "state": "开放",
      "support": "不支持",
      "standard": "无",
      "printing": "无",
      "courier": 15,
      "breakfast-b": 100,
      "breakfast-f": 10,
      "x-print": 20,
      "x-disc": "无",
      "address": "延吉市长白山东路11-3-246号",
      "phone": "0433-8397666",
      "hours": "周一-周五7:30——16:00\n周六：7:30-11:30",
      "desk-phone": "0433-8699595",
      "time": "周一-周日8:00——16:30\n周六：8:00-11:30",
      "bus-line": "公交：5、10、36、44、45延边州土地局下车\n"
    },
    {
      "province": "广东",
      "city": "阳江",
      "name": "阳江江城美年大健康医疗门诊部",
      "state": "开放",
      "support": "不支持",
      "standard": "",
      "printing": 20,
      "courier": "到付",
      "breakfast-b": 300,
      "breakfast-f": 10,
      "x-print": "无",
      "x-disc": "无",
      "address": "阳江市江城区西平北路363号 君怡写字楼11楼",
      "phone": "4000-111-828",
      "hours": "周一至周五8：30-17：30",
      "desk-phone": "0662-8833145",
      "time": "周二-周日07;30——17:00\n周一：07:30-12：00",
      "bus-line": "乘3、4、10路公交\n到排后村站下"
    },
    {
      "province": "新疆",
      "city": "伊犁",
      "name": "伊犁分院",
      "state": "开放",
      "support": "不支持",
      "standard": "不支持",
      "printing": 10,
      "courier": "顺丰到付",
      "breakfast-b": "默认100",
      "breakfast-f": 5,
      "x-print": "无",
      "x-disc": "无",
      "address": "伊宁市政府新区新二路方圆丽景",
      "phone": 13399999060.0,
      "hours": "周一-周五9:30——18:00\n周六：9:30-13:30",
      "desk-phone": "0999-7723456",
      "time": "周一至周日9：:30—13:30",
      "bus-line": "8路车四季花城下车"
    },
    {
      "province": "湖北",
      "city": "宜昌",
      "name": "宜昌市美年大健康管理有限公司华祥综合门诊部 ",
      "state": "",
      "support": "",
      "standard": "",
      "printing": 0.0,
      "courier": "到付",
      "breakfast-b": 100,
      "breakfast-f": "不支持",
      "x-print": 30,
      "x-disc": "不支持",
      "address": "宜昌市西陵区体育场北路169号华祥商业中心二期麦德龙四楼",
      "phone": "0717-168-0717,0717-6980989",
      "hours": "周一至周五8:30-16:00\n周六：8：00-12:00",
      "desk-phone": "0717-6980968",
      "time": "周一至周五7：:30-15:00 \n周六7:30-12:00",
      "bus-line": "公交7路，19路，40路。"
    },
    {
      "province": "浙江",
      "city": "义乌",
      "name": "美年大健康",
      "state": "开放",
      "support": "不支持",
      "standard": "无",
      "printing": 10,
      "courier": 10,
      "breakfast-b": 100,
      "breakfast-f": 10,
      "x-print": 30,
      "x-disc": "不支持",
      "address": "义乌市稠江街道杨村路335号",
      "phone": "0579-85889111",
      "hours": "周一到周日7：00-19:00",
      "desk-phone": "0579-85889299",
      "time": "周二至周日7:30-12：00",
      "bus-line": "南方联乘381路到浪莎集团下车即到"
    },
    {
      "province": "宁夏回族自治区",
      "city": "银川",
      "name": "银川美年大健康医院",
      "state": "2016年8月6日后开放",
      "support": "不支持",
      "standard": "无",
      "printing": 20,
      "courier": "已发件为准",
      "breakfast-b": 120,
      "breakfast-f": 10,
      "x-print": 40,
      "x-disc": "不支持",
      "address": "银川市兴庆区穆商南路、穆斯林商贸城东配楼",
      "phone": "400-8455596",
      "hours": "周二到周天7:40-17:30",
      "desk-phone": "",
      "time": "周二到周天7:40-16:00",
      "bus-line": "105、42、3、23、28路车"
    },
    {
      "province": "湖南",
      "city": "岳阳",
      "name": "岳阳美年大健康健康巴陵门诊部",
      "state": "开放",
      "support": "不支持",
      "standard": "不支持",
      "printing": 10,
      "courier": "到付",
      "breakfast-b": 100,
      "breakfast-f": 10,
      "x-print": 20,
      "x-disc": "不支持",
      "address": "岳阳经济开发区巴陵东路与通海路交汇处巴陵首府3楼",
      "phone": "0730-8980176/8980195",
      "hours": "周一到周五8:00-5:00周六8：00-12:00",
      "desk-phone": "0730-8980176",
      "time": "周一至周五8:00至17:00 \n周六8:00-12：00",
      "bus-line": "乘车路线：1路、8路、16路、19路、32路、46路、47路、48路、55路、游1路到长江骨科医院站下"
    },
    {
      "province": "山西",
      "city": "运城",
      "name": "运城市美年大健康禹都大道门诊部",
      "state": "开放",
      "support": "不支持",
      "standard": "无",
      "printing": 10,
      "courier": "到付",
      "breakfast-b": 100,
      "breakfast-f": 5,
      "x-print": 30,
      "x-disc": "无",
      "address": "运城市禹都大道218号",
      "phone": "400-098-8855  解读报告：0359-2459222  2459333",
      "hours": "周一-周五7:40——17:00\n周六：7:40-12:00",
      "desk-phone": "2088057  2088058",
      "time": "周一-周六7:40——17:30\n周六：7:40-12:00",
      "bus-line": "12、18路公交车到南风广场北下车往西200米"
    },
    {
      "province": "河南",
      "city": "郑州",
      "name": "金水分院",
      "state": "开放",
      "support": "不支持",
      "standard": "",
      "printing": 10,
      "courier": "已发件为准",
      "breakfast-b": 80,
      "breakfast-f": 5,
      "x-print": 20,
      "x-disc": "不支持",
      "address": "郑州市农业路与文化路交叉口向东50米路南新时代广场四楼（省博物馆斜对面）",
      "phone": "4006725166\n",
      "hours": "周一-周五7:00——19:00；周六8:00——17:00\n",
      "desk-phone": "0371-63853123",
      "time": "周一-周五07;30——17:00\n周六：07:30-12：00",
      "bus-line": "乘车指南：B18、B2、B11博物院站下车"
    },
    {
      "province": "河南",
      "city": "郑州",
      "name": "中州分院",
      "state": "开放",
      "support": "不支持",
      "standard": "",
      "printing": 10,
      "courier": "已发件为准",
      "breakfast-b": 80,
      "breakfast-f": 5,
      "x-print": 20,
      "x-disc": "不支持",
      "address": "郑州市金水区福彩路1号山顶大厦写字楼1-3层",
      "phone": "4006725166\n",
      "hours": "周一-周五7:00——19:00；周六8:00——17:00\n",
      "desk-phone": "0371-86526115",
      "time": "周二-周六07;30——17:00\n周日：07:30-12：00",
      "bus-line": "乘车指南：900路、B53路、B15福彩路北三环站下车\n"
    },
    {
      "province": "广东",
      "city": "中山",
      "name": "中山美年大健康兴中分院",
      "state": "开放",
      "support": "不支持",
      "standard": "无",
      "printing": 10,
      "courier": "到付",
      "breakfast-b": 160,
      "breakfast-f": 5,
      "x-print": 40,
      "x-disc": "无",
      "address": "中山市南基路兴中广场A座6-7楼",
      "phone": "0760-86138888",
      "hours": "周一-周五8：30—12：00 14：00—17：30\n周六：8：00-12:00",
      "desk-phone": "0760-86139666",
      "time": "周二至周日 8：00-12：00  值班到16:00   ",
      "bus-line": "乘车路线：凤鸣路站 001、016、018、035、201、K03路    中恳百货站 006、009、016、017路"
    },
    {
      "province": "重庆",
      "city": "重庆",
      "name": "江北分院",
      "state": "开放",
      "support": "支持",
      "standard": "200元",
      "printing": 15,
      "courier": 15,
      "breakfast-b": 100,
      "breakfast-f": 10,
      "x-print": 35,
      "x-disc": 20,
      "address": "重庆市江北区海尔路6号9栋（巴蜀城公交车站旁）",
      "phone": "023-88506556 400-023-2501",
      "hours": "周一至周五8点至12点下午2点-5点 星期六8点至12点\n周六8：00-11:30",
      "desk-phone": "023-86910999",
      "time": "周一至周五8:00至17:00 \n周六8:00-12：00",
      "bus-line": "乘车指南：107路、153路、620路、866路 （巴蜀城公交车站下行50米） 轻轨6号线 五里店站"
    },
    {
      "province": "重庆",
      "city": "重庆",
      "name": "万象城",
      "state": "开放",
      "support": "支持",
      "standard": "200元",
      "printing": 15,
      "courier": 15,
      "breakfast-b": 100,
      "breakfast-f": 10,
      "x-print": 35,
      "x-disc": 20,
      "address": "九龙坡区谢家湾正街55号  华润二十四城19栋",
      "phone": "023-88506556 400-023-2501",
      "hours": "周一至周五8点至12点下午2点-5点 星期六8点至12点\n周六8：00-11:30",
      "desk-phone": "023-88277111",
      "time": "周一至周五8:00至17:00 \n周六8:00-12：00",
      "bus-line": "乘车指南：820路、148路、207路、216路、403路、411路、412路、416路、475路 轻轨2号 谢家湾站"
    },
    {
      "province": "重庆",
      "city": "重庆",
      "name": "重庆巴南慈铭综合门诊部有限公司",
      "state": "开放",
      "support": "不支持",
      "standard": "无",
      "printing": 8,
      "courier": 15,
      "breakfast-b": 80,
      "breakfast-f": 10,
      "x-print": 20,
      "x-disc": "不支持",
      "address": "重庆市巴南区巴县大道103-15",
      "phone": "400-880-4190",
      "hours": "周一至周五8：30-16：30",
      "desk-phone": "023-62292903",
      "time": "周一至周日8：00-12：00",
      "bus-line": "乘车指南：沙坪坝路线\n\n公交路线：乘坐806路公交→石桥铺换乘238→宏源小区、步行196米\n\n地铁路线：沙坪坝地铁一号线（开往小什字方向）→大坪站内换乘2号线轻轨→鱼洞站下→换乘外环198路公交→海天花园站下车\n解放碑路线\n公交路线：308路公交→龙洲湾加气站下、同站换乘171→海天花园站下车\n轻轨路线：临江门乘坐2号线轻轨→天堂堡换乘2号线开往鱼洞方向的轻轨→鱼洞站下\n→换乘坐外环198路公交→海天花园站下\n江北路线\n公交路线：818路公交→阳光花园站下、同站换乘238→宏源小区站下、步行196米\n轻轨路线：乘坐轻轨3号线→学堂湾2号出口出→换乘171→海天花园站下车\n\n南岸区路线\n轻轨路线：188路公交→南坪南路下车→换乘3号轻轨→学堂湾2号出口出→换乘171路公交→海天花园站下车\n\n公交路线：392路公交→界石公共服务中心下、同站换乘186路公交→龙洲湾加气站下、同站换乘171→海天花园站下车\n\n"
    },
    {
      "province": "重庆",
      "city": "重庆",
      "name": "重庆慈铭奥亚健康管理有限公司江北综合门诊部",
      "state": "开放",
      "support": "支持",
      "standard": "",
      "printing": 0.0,
      "courier": "",
      "breakfast-b": 120,
      "breakfast-f": 10,
      "x-print": 20,
      "x-disc": 20,
      "address": "重庆市江北区聚贤岩广场7号力帆中心1号楼1-2层",
      "phone": "023-67639956",
      "hours": "周一至周五8：30-17：30",
      "desk-phone": "023-67522904",
      "time": "周一至周五8:00至16:00 \n周六8:00-12：00",
      "bus-line": "乘车指南：轻轨6号线大剧院5号出口，公交604、651、672（金沙门路站下）"
    },
    {
      "province": "重庆",
      "city": "重庆",
      "name": "重庆慈铭奥亚健康管理有限公司江南综合门诊部",
      "state": "开放",
      "support": "支持",
      "standard": "",
      "printing": 0.0,
      "courier": "",
      "breakfast-b": 120,
      "breakfast-f": 10,
      "x-print": 20,
      "x-disc": 20,
      "address": "重庆市南岸区烟雨路7号国瑞中心北侧广场负二楼",
      "phone": "023-67639956",
      "hours": "周一至周五8：30-17：30",
      "desk-phone": "023-62477369",
      "time": "周一至周五8:00至16:00 \n周六8:00-12：01",
      "bus-line": "公交车可坐131路、305路、320路、377路、388路在江南体育管下车即到；公交车可坐354、384路、304路、318路、321路、352路在海棠溪下车步行700米即到。江南分院导航地址：重庆施光南大剧院"
    },
    {
      "province": "河南",
      "city": "周口",
      "name": "美年大健康周口分院",
      "state": "对异地开放",
      "support": "不支持",
      "standard": "",
      "printing": 10,
      "courier": 10,
      "breakfast-b": 80,
      "breakfast-f": 0,
      "x-print": 20,
      "x-disc": "",
      "address": "河南省周口市，商水县周商大道，法姬娜对面路西100米",
      "phone": 15518150645.0,
      "hours": "周一到周六  8:00-18:00",
      "desk-phone": "0394-7855888",
      "time": "8:00-12:00",
      "bus-line": "周口市区乘坐3路公交车，八里湾站下车直达"
    },
    {
      "province": "湖南",
      "city": "株洲",
      "name": "芦淞分院",
      "state": "开放",
      "support": "不支持",
      "standard": "无",
      "printing": 20,
      "courier": "到付",
      "breakfast-b": 100,
      "breakfast-f": "不支持",
      "x-print": 50,
      "x-disc": 10,
      "address": "湖南省株洲市芦淞区建设南路68号胜马可商业广场4楼",
      "phone": "400-6979-036",
      "hours": "周一至周五8点至12点下午2点-5点30",
      "desk-phone": "0731-22109688",
      "time": "周一-周六7:40——12:30\n",
      "bus-line": "乘车路线：株洲市四医院5路.7路.9路.16路.17路.18路.33路.36路."
    },
    {
      "province": "广东",
      "city": "珠海",
      "name": "珠海美年大健康健康管理有限公司湾仔门诊部",
      "state": "开放",
      "support": "不支持",
      "standard": "无",
      "printing": 20,
      "courier": "到付",
      "breakfast-b": 160,
      "breakfast-f": 10,
      "x-print": "无",
      "x-disc": "无",
      "address": "珠海市香洲区湾仔南湾南路3007号",
      "phone": "400-622-8298",
      "hours": "周一至周五8：30-17：30",
      "desk-phone": "0756-6325036",
      "time": "周一至周日7：40-12：00",
      "bus-line": "乘61、62、K10、K11、86、14到湾仔旅游码头下"
    },
    {
      "province": "山东",
      "city": "淄博",
      "name": "淄博美年大健康管理有限公司颐和门诊部",
      "state": "开放",
      "support": "不支持",
      "standard": "无",
      "printing": 10,
      "courier": "到付",
      "breakfast-b": 80,
      "breakfast-f": "不支持",
      "x-print": 20,
      "x-disc": 20,
      "address": "淄博高新区金晶大道267号颐和大厦1号楼",
      "phone": "0533-3911868",
      "hours": "周一至周六7：30-17:00",
      "desk-phone": "0533-3810616",
      "time": "周一至周六7：:15-12:00",
      "bus-line": "公交156路、51路东线、71路、116路、122路、157路、162路、"
    },
    {
      "province": "四川",
      "city": "自贡",
      "name": "自贡美年大健康医疗门诊部",
      "state": "开放",
      "support": "不支持",
      "standard": "",
      "printing": 10,
      "courier": "到付",
      "breakfast-b": 80,
      "breakfast-f": 5,
      "x-print": 50,
      "x-disc": "不支持",
      "address": "自贡市大安区马吃水山水名城154号",
      "phone": "0813-2630956",
      "hours": "周一至周五8：00-16：00",
      "desk-phone": "0813-2630955",
      "time": "周一至周六8：00-12：00",
      "bus-line": "公交2路、11路、16路、17路、18路、26路、31路、33路、34路、36路、40路、41路到圣地亚家具广场站"
    },
    {
      "province": "安徽",
      "city": "铜陵",
      "name": "铜陵美年大健康咨询有限公司",
      "state": "开放",
      "support": "不支持",
      "standard": "无",
      "printing": 0.0,
      "courier": "",
      "breakfast-b": 80,
      "breakfast-f": "免费",
      "x-print": "30/张",
      "x-disc": "不支持",
      "address": "安徽省铜陵市铜官区木鱼山大道122号澳体健身中心3楼（铜官区政府对面）",
      "phone": "0562-5326666",
      "hours": "周一—周六\n早7:30-17:00",
      "desk-phone": "0562-5326666",
      "time": "周一至周六7:30-12:00",
      "bus-line": "乘坐14路、18路、25路到大阳历广场下"
    },
    {
      "province": "新疆",
      "city": "喀什",
      "name": "喀什分院",
      "state": "开放",
      "support": "不支持",
      "standard": "不支持",
      "printing": 10,
      "courier": 20,
      "breakfast-b": 80,
      "breakfast-f": 5,
      "x-print": 35,
      "x-disc": "无",
      "address": "喀什经济开发区深喀大道总部经济区远方财富中心陕西大厦四楼",
      "phone": "0998-2679818",
      "hours": "周一-周五9:30——18:00\n周六：9:30-13:30",
      "desk-phone": "0998-2679100",
      "time": "周一-周六9:00——13:30\n",
      "bus-line": "乘车路线：12、18"
    },
    {
      "province": "广东",
      "city": "汕头",
      "name": "汕头美年健康管理有限公司",
      "state": "开放",
      "support": "不支持",
      "standard": "无",
      "printing": 10,
      "courier": "到付",
      "breakfast-b": 100,
      "breakfast-f": "不支持",
      "x-print": 80,
      "x-disc": "暂不支持",
      "address": "广东省汕头市泰山路8号（骏荣4s店后侧）",
      "phone": "",
      "hours": "",
      "desk-phone": "0754-888 888 77",
      "time": "周一至周日7:40-17:00",
      "bus-line": "公交车25路"
    },
    {
      "province": "辽宁",
      "city": "抚顺",
      "name": "抚顺美年大健康望花门诊部",
      "state": "开放",
      "support": "不支持",
      "standard": "无",
      "printing": 10,
      "courier": "到付",
      "breakfast-b": 100,
      "breakfast-f": 5,
      "x-print": 30,
      "x-disc": "不支持",
      "address": "抚顺市望花区北镇街星河城5号1门市",
      "phone": 4006050699.0,
      "hours": "周一至周日8:00-17:00\n\n",
      "desk-phone": "024-58018061",
      "time": "周一至周日    7:30--12:00",
      "bus-line": "公交109、103、102、37、58路"
    },
    {
      "province": "浙江",
      "city": "湖州",
      "name": "湖州美年健康综合门诊部有限公司",
      "state": "开放",
      "support": "不支持",
      "standard": "无",
      "printing": 20,
      "courier": "到付",
      "breakfast-b": 120,
      "breakfast-f": 7,
      "x-print": "50/张",
      "x-disc": "不支持",
      "address": "浙江省湖州市长兴路258号湖州日报二期南铺楼1-3层",
      "phone": "400-829-3663",
      "hours": "周二至周日8:00-4：:30",
      "desk-phone": "0572-2176025",
      "time": "周二至周日    7:30--12:00",
      "bus-line": "乘车路线7,14,16,25"
    },
    {
      "province": "内蒙古",
      "city": "乌兰察布",
      "name": "乌兰察布美年大健康健康管理有限公司",
      "state": "",
      "support": "",
      "standard": "",
      "printing": 0.0,
      "courier": "",
      "breakfast-b": 80,
      "breakfast-f": "免费",
      "x-print": 25,
      "x-disc": "不支持",
      "address": "乌兰察布市新区惠民园西商业2楼",
      "phone": "400-879-9096",
      "hours": "周一至周六8：00——17：00",
      "desk-phone": "暂不支持",
      "time": "周一至周日8：00-12：00",
      "bus-line": "乘车路线10路、16路医专下车"
    },
    {
      "province": "河南",
      "city": "郑州",
      "name": "二七分院",
      "state": "开放",
      "support": "不支持",
      "standard": "",
      "printing": 10,
      "courier": "已发件为准",
      "breakfast-b": 80,
      "breakfast-f": 5,
      "x-print": 20,
      "x-disc": "不支持",
      "address": "郑州市南三环嵩山南路东南角，美年大健康体检中心（艾菲尔时尚酒店隔壁）",
      "phone": "4006725166\n",
      "hours": "周一-周五7:00——19:00；周六8:00——17:00\n",
      "desk-phone": "0371-58637737",
      "time": "周二--周日07;30——17:00\n周一：07:30-12：00",
      "bus-line": "乘车指南：B3南三环嵩山路站、B11、217、3、49黄岗寺站"
    },
    {
      "province": "河南",
      "city": "郑州",
      "name": "商都分院",
      "state": "开放",
      "support": "不支持",
      "standard": "",
      "printing": 10,
      "courier": "已发件为准",
      "breakfast-b": 80,
      "breakfast-f": 5,
      "x-print": 20,
      "x-disc": "不支持",
      "address": "郑州市农业路南路与商都路交叉口路南亚星投资大厦一楼美年大健康体检中心",
      "phone": "4006725166\n",
      "hours": "周一-周五7:00——19:00；周六8:00——17:00\n",
      "desk-phone": "0371-86656589",
      "time": "周一-周五07;30——17:00\n周六：07:30-12：00",
      "bus-line": "乘车指南：60路85路985路东周村（郑东商业中心）下车"
    },
    {
      "province": "内蒙古",
      "city": "包头",
      "name": "白云路分院",
      "state": "开放",
      "support": "不支持",
      "standard": "",
      "printing": "不支持",
      "courier": "到付",
      "breakfast-b": 100,
      "breakfast-f": "不支持",
      "x-print": "20/张",
      "x-disc": "不支持",
      "address": "包头市昆区钢铁大街与白云路交叉口西南角",
      "phone": "0472-6201999",
      "hours": "周一至周五8:30-12:00、14:30-17:30",
      "desk-phone": "0472-6201940",
      "time": "周一至周日7：50-12:00",
      "bus-line": "1、5、11、15、19、23、25、29、32、33、40路公交车，到包百大楼站下车"
    },
    {
      "province": "广东",
      "city": "深圳",
      "name": "荣超分院（只接团单、不接入职）",
      "state": "开放",
      "support": "不支持",
      "standard": "",
      "printing": 10,
      "courier": "已发件为准",
      "breakfast-b": 200,
      "breakfast-f": 5,
      "x-print": 30,
      "x-disc": "不支持",
      "address": "广东省深圳市福田区金田路4036号荣超大厦M1层",
      "phone": 4009931669.0,
      "hours": "周一至周五：8:00-18:00，周六至周日：8:00-17:00",
      "desk-phone": "0755-83222869",
      "time": "周一--周五 7;50-17：00  周六—周日7：50—16：00",
      "bus-line": "公交路线站名：关山月美术馆\n公交线路：10、25、64、65、111、108、215、228、237、34、54等\n南山→罗湖：下车后往西方向走，约五十米可到荣超大厦，乘电梯至M1层\n罗湖→南山：下车后走到马路对面，即可到荣超大厦，乘电梯至M1层           地铁路线：\n龙岗线（3号线）\n站名：莲花村站A出口，往西方向走，约六百米可到荣超大厦，乘电梯至M1层\n龙华线（4号线）\n站名：少年宫B出口，往东方向走，约二百米可到荣超大厦，乘电梯至M1层\n\n"
    },
    {
      "province": "浙江",
      "city": "衢州",
      "name": "衢州美年大健康管理有限公司西城医院",
      "state": "",
      "support": "不支持",
      "standard": "",
      "printing": 20,
      "courier": 12,
      "breakfast-b": "100以上",
      "breakfast-f": 10,
      "x-print": "100一个部位",
      "x-disc": "",
      "address": "衢州市白云中大道39号中央商务广场三栋",
      "phone": 4008265311.0,
      "hours": "周一至周日8:00-16:30\n\n",
      "desk-phone": "0570-2783337",
      "time": "周一至周日7:40-3:30",
      "bus-line": ""
    },
    {
      "province": "江西",
      "city": "鹰潭",
      "name": "鹰潭百盛大健康体检中心",
      "state": "开放",
      "support": "不支持",
      "standard": "无",
      "printing": 11,
      "courier": "到付",
      "breakfast-b": "100以上",
      "breakfast-f": "免费",
      "x-print": 20,
      "x-disc": "不支持",
      "address": "江西省鹰潭市月湖区胜利西路114号\n\n",
      "phone": "0701-6287333",
      "hours": "周一至周日8:00-17:00\n\n",
      "desk-phone": "0701-6287333",
      "time": "周二至周日7:30-17：00",
      "bus-line": "26路、5路、1路"
    },
    {
      "province": "福建",
      "city": "福清",
      "name": "福清市美年大健康管理有限公司",
      "state": "开放",
      "support": "",
      "standard": "",
      "printing": 10,
      "courier": 10,
      "breakfast-b": 100,
      "breakfast-f": 6,
      "x-print": "25/张",
      "x-disc": "18/张",
      "address": "福清市创元大酒店二号楼二层",
      "phone": "400-179-8866",
      "hours": "周一至周日7：30-17:30",
      "desk-phone": "0591-85877352",
      "time": "周二至周日 7：30-12：00 0   ",
      "bus-line": "公交车823路、806路、801路、831路、827路"
    },
    {
      "province": "河北",
      "city": "保定",
      "name": "保定市美年大健康门诊部有限公司",
      "state": "开放",
      "support": "不支持",
      "standard": "无",
      "printing": 10,
      "courier": "到付",
      "breakfast-b": "100以上",
      "breakfast-f": 5,
      "x-print": 30,
      "x-disc": "不支持",
      "address": "保定市莲池区瑞祥大街1876号丽景蓝湾C区底商",
      "phone": "0312-5881166 ",
      "hours": "周一至周日8:00-16:00",
      "desk-phone": "暂不支持",
      "time": "周二至周日7:30-12：00",
      "bus-line": "59路兰溪九章小区站下车南行50米路西    33路 52路 57路 65路 610路复兴路体校站下车瑞祥大街北行1000米"
    },
    {
      "province": "江苏",
      "city": "盐城",
      "name": "盐城美年健康管理有限公司美年大健康门诊部",
      "state": "开放",
      "support": "不支持",
      "standard": 0,
      "printing": 10,
      "courier": 10,
      "breakfast-b": "100以上",
      "breakfast-f": "免费",
      "x-print": "DR：每个部位30元；CT：胸部（肺部）50元",
      "x-disc": "不支持",
      "address": "盐城市亭湖区沿河中路24号",
      "phone": "400-928-6100",
      "hours": "周一-周五7:30——17:00\n周六：7:30-12:00",
      "desk-phone": "暂不支持",
      "time": "周一至周日7:00-10：30",
      "bus-line": "B1\\B2，建军路、双元路站下，步行300米"
    },
    {
      "province": "湖南",
      "city": "张家界",
      "name": "张家界美年大健康管理有限公司",
      "state": "开放",
      "support": "不支持",
      "standard": "无",
      "printing": 10,
      "courier": "到付",
      "breakfast-b": 120,
      "breakfast-f": 10,
      "x-print": 20,
      "x-disc": "暂不支持",
      "address": "湖南省张家界市永定区官黎路（新汽车站旁）吉大张家界学院附属医院二楼",
      "phone": "0744-8230327",
      "hours": "周一至周五7:30-17:00，周六7:30-12:00",
      "desk-phone": "0744-8230327",
      "time": "周一至周五7:30-17:00，周六7:30-12:00",
      "bus-line": "公交车：6路，10路，到国际旅游城下；5路车到汽车站下"
    },
    {
      "province": "甘肃",
      "city": "兰州",
      "name": "金雨分院",
      "state": "开放",
      "support": "不支持",
      "standard": 0,
      "printing": 5,
      "courier": "到付",
      "breakfast-b": "120以上",
      "breakfast-f": "免费",
      "x-print": "DR:30/张，CT80一张",
      "x-disc": "不支持",
      "address": "兰州市七里河区西津东路581号金雨大厦3楼",
      "phone": 4008859509.0,
      "hours": "周一至周日8:00-17:00\n\n",
      "desk-phone": "0931-2601222",
      "time": "周一至周五早7:30-5:00，周六至周日7:30-12:00",
      "bus-line": "1路，31路，58路七里河桥下车向东200米"
    },
    {
      "province": "甘肃",
      "city": "兰州",
      "name": "金城分院",
      "state": "开放",
      "support": "不支持",
      "standard": 0,
      "printing": 5,
      "courier": "到付",
      "breakfast-b": "120以上",
      "breakfast-f": "免费",
      "x-print": "DR:30/张，CT80一张",
      "x-disc": "不支持",
      "address": "兰州市城关区南滨河路516号（甘肃画院东侧）",
      "phone": 4008859509.0,
      "hours": "周一至周日8:00-17:00\n\n",
      "desk-phone": "0931-8329888",
      "time": "周一至周五早7:30-5:00，周六至周日7:30-12:00",
      "bus-line": "25路水车博览园下车"
    },
    {
      "province": "甘肃",
      "city": "兰州",
      "name": "金茂分院",
      "state": "开放",
      "support": "不支持",
      "standard": 0,
      "printing": 5,
      "courier": "到付",
      "breakfast-b": "120以上",
      "breakfast-f": "免费",
      "x-print": "DR:30/张，CT80一张",
      "x-disc": "不支持",
      "address": "兰州市城关区榆中街82-88号（永和豆浆南侧）",
      "phone": 4008859509.0,
      "hours": "周一至周日8:00-17:00\n\n",
      "desk-phone": "0931-8702888",
      "time": "周一至周五早7:30-5:00，周六至周日7:30-12:00",
      "bus-line": "142路，56路广场南口下车"
    },
    {
      "province": "河北",
      "city": "秦皇岛",
      "name": "天华体检分院",
      "state": "秦皇岛美年大健康健康体检管理有限公司商城东路门诊部",
      "support": "",
      "standard": "",
      "printing": 0.0,
      "courier": "",
      "breakfast-b": 80,
      "breakfast-f": "免费",
      "x-print": 30,
      "x-disc": "不支持",
      "address": "河北省秦皇岛海港区商城东路2号",
      "phone": "0335-3501111",
      "hours": "周一至周日8:00-17:00\n\n",
      "desk-phone": "0335-3501111",
      "time": "周一至周五早7:30-16:00，周六至周日7:30-12:00",
      "bus-line": "乘车指南：1路、10路、16路、18路、25路、3路、30路、34路、9路车商城站下。"
    },
    {
      "province": "山东",
      "city": "济南",
      "name": "济南美年大健康管理有限公司章丘门诊部",
      "state": "开放",
      "support": "不支持",
      "standard": 0,
      "printing": 0.0,
      "courier": "",
      "breakfast-b": 0.0,
      "breakfast-f": 4,
      "x-print": "30/张",
      "x-disc": "不支持",
      "address": "山东省济南市章丘区工业二路6308号",
      "phone": 83116100,
      "hours": "周一至周日7:30-17：00",
      "desk-phone": "",
      "time": "周一至周日早7:30-12：00",
      "bus-line": "公交7路"
    },
    {
      "province": "广东",
      "city": "佛山",
      "name": "佛山奥亚健康管理有限公司华园门诊部",
      "state": "对异地开放",
      "support": "",
      "standard": "",
      "printing": 0.0,
      "courier": "到付",
      "breakfast-b": 150,
      "breakfast-f": 10,
      "x-print": 50,
      "x-disc": "不支持",
      "address": "佛山市禅城区汾江路6号星星华园国际商场4楼",
      "phone": "0757-89959999",
      "hours": "周一到周六：8:00-18:00\n周日：8:30-18:00",
      "desk-phone": "0757-89932300",
      "time": "周一至周日 8:00-12:00",
      "bus-line": "地铁：广佛线-季华园-C出口\n公交车：季华园路线\n151路、120路、132路、113路、127路、159路、154路、152路、226路、259路、G13路、K3路佛、K6路、高峰1、旅游城巴4路、禅城-高明B线、禅城-顺德路、150路"
    },
    {
      "province": "山东",
      "city": "东营",
      "name": "东营市美年大健康健康管理有限公司东营综合门诊部",
      "state": "",
      "support": "",
      "standard": "",
      "printing": 0.0,
      "courier": "",
      "breakfast-b": "100以上",
      "breakfast-f": 10,
      "x-print": "25元/张",
      "x-disc": "不支持",
      "address": "东营市黄河路355号",
      "phone": "0546-7779878-1",
      "hours": "周一至周日7:00-17：00",
      "desk-phone": "0546-7789568",
      "time": "周一至周日早7:15-11：45",
      "bus-line": "5、7、8、101、103、121、111、131、112、117、888到长途汽车总站下车"
    },
    {
      "province": "新疆",
      "city": "阿克苏",
      "name": "阿克苏美年大健康健康管理有限公司",
      "state": "",
      "support": "",
      "standard": "",
      "printing": 0.0,
      "courier": "",
      "breakfast-b": 0.0,
      "breakfast-f": 10,
      "x-print": 0.0,
      "x-disc": "",
      "address": "阿克苏市北大街警苑小区34号",
      "phone": "0997-7777762",
      "hours": "周一至周日9:30-19:30\n\n",
      "desk-phone": "0997-2133311",
      "time": "周一、周三到周日 9:30-18:30(周二休息)",
      "bus-line": ""
    },
    {
      "province": "湖南",
      "city": "常德",
      "name": "常德美年大健康管理有限公司武陵分院",
      "state": "开放",
      "support": "不支持",
      "standard": 0,
      "printing": 10,
      "courier": "到付",
      "breakfast-b": "100以上",
      "breakfast-f": "免费",
      "x-print": 20,
      "x-disc": "不支持",
      "address": "湖南常德市武陵区府坪街道东湖巷社区人民路1311号经泽星都一号楼裙楼3-4层",
      "phone": "0736-2990000",
      "hours": "周一至周六早7:30-12：00",
      "desk-phone": "0736-2990000",
      "time": "周一至周六早7:30-12：00",
      "bus-line": "乘坐1路，30路，h12路，政务中心站下"
    },
    {
      "province": "山东",
      "city": "东营",
      "name": "东营市美年大健康健康管理有限公司东营综合门诊部",
      "state": "对本地开放，不接收全国单",
      "support": "不支持",
      "standard": "",
      "printing": 20,
      "courier": "到付",
      "breakfast-b": "100以上",
      "breakfast-f": 10,
      "x-print": "25元/张",
      "x-disc": "不支持",
      "address": "东营市黄河路355号",
      "phone": "0546-7779878-1",
      "hours": "周一至周日7:00-17：00",
      "desk-phone": "0546-7789568",
      "time": "周一至周日早7:15-11：45",
      "bus-line": "5、7、8、101、103、121、111、131、112、117、888到长途汽车总站下车"
    },
    {
      "province": "广东",
      "city": "河源",
      "name": "河源市美年大健康体检中心",
      "state": "开放",
      "support": "不支持",
      "standard": "无",
      "printing": 20,
      "courier": "已发件为准",
      "breakfast-b": "200以上",
      "breakfast-f": "免费",
      "x-print": "30/张",
      "x-disc": "不支持",
      "address": "河源市源城区永和东路华达新城正门右侧二楼",
      "phone": 4001510845.0,
      "hours": "周一-周日7:00-16:30",
      "desk-phone": "0672-3635666",
      "time": "周一至周日早7:30-12：01",
      "bus-line": ""
    },
    {
      "province": "河南",
      "city": "开封",
      "name": "开封美年大健康健康管理有限公司新区综合门诊部",
      "state": "开放",
      "support": "不支持",
      "standard": "",
      "printing": 10,
      "courier": "到付",
      "breakfast-b": 80,
      "breakfast-f": "",
      "x-print": "60/张",
      "x-disc": "不支持",
      "address": "开封市黄河路南段锦豪丽苑三楼",
      "phone": "0371-23711777",
      "hours": "周一至周日7:30-17：00",
      "desk-phone": "0371-23369961",
      "time": "周一至周日早7:00-12：00",
      "bus-line": "22路、38路"
    },
    {
      "province": "四川",
      "city": "眉山",
      "name": "眉山美年大健康管理有限公司",
      "state": "开放",
      "support": "不支持",
      "standard": 0,
      "printing": 20,
      "courier": "到付",
      "breakfast-b": 100,
      "breakfast-f": "不支持",
      "x-print": "30元/张",
      "x-disc": "不支持",
      "address": "眉山市东坡区东坡大道南一段11号（领地凯旋广场）",
      "phone": "028-38117888",
      "hours": "周一至周五8：00——16:00\n周六、周日：8：00-12:00",
      "desk-phone": "208-38117888",
      "time": "周一至周五8：00-17：30，周六、周日：8：00-12：00",
      "bus-line": "乘车路线：11、14、15、17路，市行政服务中心站下，距200米左右到达"
    },
    {
      "province": "江苏",
      "city": "无锡",
      "name": "华康分院",
      "state": "开放",
      "support": "不支持",
      "standard": 0,
      "printing": 10,
      "courier": 12,
      "breakfast-b": "80以上",
      "breakfast-f": "免费",
      "x-print": 20,
      "x-disc": "不支持",
      "address": "江苏省无锡市梁溪区五爱北路金置广场99号",
      "phone": "0510-66051260",
      "hours": "周一到周五：7:30-16:30\n周六：7:30-11:00",
      "desk-phone": "0510-66051260",
      "time": "周一到周五：7:30-16:30\n周六：7:30-11:00",
      "bus-line": "1、2、16、27、29、52、70、73、4、15、33"
    },
    {
      "province": "江苏",
      "city": "无锡",
      "name": "五爱分院",
      "state": "开放",
      "support": "不支持",
      "standard": 0,
      "printing": 10,
      "courier": 12,
      "breakfast-b": "80以上",
      "breakfast-f": "免费",
      "x-print": 20,
      "x-disc": "不支持",
      "address": "江苏省无锡市新吴区兴昌南路228-8号",
      "phone": "0510-66052988",
      "hours": "周一到周五：7:30-16:30\n周六：7:30-11:00",
      "desk-phone": "0510-66052988",
      "time": "周一到周五：7:30-16:30\n周六：7:30-11:00",
      "bus-line": "公交车501路、41路、35路、35路大站"
    },
    {
      "province": "安徽",
      "city": "淮南",
      "name": "淮南美年大健康健康管理有限公司综合门诊部",
      "state": "开放",
      "support": "不支持",
      "standard": 0,
      "printing": 10,
      "courier": "到付",
      "breakfast-b": "150以上",
      "breakfast-f": 10,
      "x-print": "25元/张",
      "x-disc": "不支持",
      "address": "高新区（山南新区）淮河大道淮南剧院内南侧裙楼",
      "phone": "0554-5388188",
      "hours": "周一至周日7:00-17：00",
      "desk-phone": "",
      "time": "周一至周日早7:00-11：00",
      "bus-line": "乘628路、629路、631路、37路、32路、16路到民惠街下"
    },
    {
      "province": "浙江",
      "city": "台州",
      "name": "温岭美年日昇健康体检有限公司",
      "state": "开放",
      "support": "不支持",
      "standard": "",
      "printing": 10,
      "courier": 10,
      "breakfast-b": "80以上",
      "breakfast-f": "免费",
      "x-print": 21,
      "x-disc": 21,
      "address": "台州市温中华北路588号",
      "phone": 81760888,
      "hours": "周一到周日",
      "desk-phone": 81760881,
      "time": "周二7:15到16:00至周日7:15到16:00",
      "bus-line": "公交车15路 16路"
    },
    {
      "province": "四川",
      "city": "西昌",
      "name": "西昌美年大健康健康管理有限公司",
      "state": "开放",
      "support": "不支持",
      "standard": "",
      "printing": 10,
      "courier": "到付",
      "breakfast-b": "200以上",
      "breakfast-f": "免费",
      "x-print": 0.0,
      "x-disc": "不支持",
      "address": "四川省西昌市月光大道110号惠民家园",
      "phone": "0834-6963288",
      "hours": "周一到周五：8:30-18:00\n",
      "desk-phone": "0834-6963286",
      "time": "周一至周日早7:50-10:00",
      "bus-line": "乘坐10路车在市国资公司站下车"
    },
    {
      "province": "河南",
      "city": "三门峡",
      "name": "三门峡美年大健康有限公司体检中心",
      "state": "开放",
      "support": "不支持",
      "standard": "无",
      "printing": "10元",
      "courier": "根据情况定",
      "breakfast-b": 80,
      "breakfast-f": "不支持",
      "x-print": 50,
      "x-disc": "不支持",
      "address": "河南省三门峡市湖滨区五原路商会大厦B座1-2层",
      "phone": "0398-2288111",
      "hours": "周一到周日7：30-18：00",
      "desk-phone": "",
      "time": "",
      "bus-line": "乘车指南：10路、14路到会展中心下车"
    },
    {
      "province": "江西",
      "city": "宜春",
      "name": "美年大健康体检有限公司慈航门诊部",
      "state": "开放",
      "support": "不支持",
      "standard": "",
      "printing": 10,
      "courier": "到付",
      "breakfast-b": "100以上",
      "breakfast-f": "支持",
      "x-print": "30/部位",
      "x-disc": "不支持",
      "address": "宜春市泸州北路669号",
      "phone": "0795-3174666",
      "hours": "周一到周日7：:50-17:00",
      "desk-phone": "",
      "time": "周一至周日早7:40-17：00",
      "bus-line": "乘26路、17路外线直达慈航体检招呼站"
    },
    {
      "province": "广东",
      "city": "惠州",
      "name": "惠城分院",
      "state": "开放",
      "support": "无",
      "standard": "无",
      "printing": 10,
      "courier": "到付",
      "breakfast-b": "高于120",
      "breakfast-f": 6,
      "x-print": "40/张",
      "x-disc": "无",
      "address": "惠州市惠城区河南岸斑樟湖路东鑫大厦A座",
      "phone": "4008613400/2787888",
      "hours": "周一到周五：7:30-18:00   周六日：8:00-17:30",
      "desk-phone": 2566322,
      "time": "全周8:00-17:30",
      "bus-line": ""
    },
    {
      "province": "广东",
      "city": "湛江",
      "name": "湛江上德上医慈铭健康管理有限公司京基门诊部",
      "state": "开放",
      "support": "不支持",
      "standard": "",
      "printing": 10,
      "courier": "到付",
      "breakfast-b": 120,
      "breakfast-f": 5,
      "x-print": "30-40",
      "x-disc": "",
      "address": "湛江市赤坎区人民大道北41号京基大厦六楼",
      "phone": "0759-3361888",
      "hours": "周一-周日8:15——17:45\n",
      "desk-phone": "0759-3328866",
      "time": "周一-周日7:45——12:00\n",
      "bus-line": "乘车11、12、16、38、23、41、44、11K体育中心站下车"
    },
    {
      "province": "甘肃省",
      "city": "平凉市",
      "name": "平凉美年大健康健康管理有限公司",
      "state": "开放",
      "support": "不支持",
      "standard": "",
      "printing": 0.0,
      "courier": "到付",
      "breakfast-b": 0.0,
      "breakfast-f": "",
      "x-print": "DR：20元/张\nCT、核磁：40元/张",
      "x-disc": "不支持",
      "address": "平凉市崆峒区太统路18号",
      "phone": "0933-8578237",
      "hours": "周一到周六7：:50-17:30",
      "desk-phone": "0933-8888018",
      "time": "周一到周六7：:30-17:30",
      "bus-line": "乘坐1路、13路、16路、21路、39路到三天门站"
    },
    {
      "province": "广东省",
      "city": "韶关市",
      "name": "韶关分院",
      "state": "开放",
      "support": "无",
      "standard": "无",
      "printing": 10,
      "courier": "到付",
      "breakfast-b": "高于120",
      "breakfast-f": 6,
      "x-print": "60/张",
      "x-disc": "无",
      "address": "韶关市浈江区解放路2路雍华广场三层",
      "phone": "4006271668/8550688",
      "hours": "周一到周五：8:00-18:00   周六日：8:00-17:30",
      "desk-phone": "0751-8550731",
      "time": "周一至周日早7:40-12：00 值班到16:00",
      "bus-line": "乘18路、19路、22路、3路、5路直达解放路东公交车站"
    },
    {
      "province": "广东省",
      "city": "茂名市",
      "name": "茂名慈铭医院有限公司 美年大健康（光华南店）",
      "state": "开放",
      "support": "不支持",
      "standard": "",
      "printing": 10,
      "courier": "到付",
      "breakfast-b": "201以上",
      "breakfast-f": "免费",
      "x-print": "30/张",
      "x-disc": "不支持",
      "address": "茂名市光华南路178号人民广场正对门文创街2-3楼",
      "phone": "0668-3363333",
      "hours": "周一至周日8:00--17:00\n",
      "desk-phone": "0668-3363333",
      "time": "周一至周日7:20-16:00",
      "bus-line": "公交车202路、210路、302路、313路"
    }
  ]